{"rows":[
 {
   "idx": 4290,
   "county": "FRANKLIN County, North Carolina",
   "countylat": 36.0828,
   "countylng": -78.2857,
   "name": "GCF Donation Center & Store",
   "lat": 36.09525341,
   "lng": -78.29630904,
   "vmaintype": "Accessories Store",
   "maintype": "Accessories"
 },
 {
   "idx": 7110,
   "county": "MACON County, North Carolina",
   "countylat": 35.1505,
   "countylng": -83.4221,
   "name": "Goodwill Retail Store",
   "lat": 35.165018,
   "lng": -83.398465,
   "vmaintype": "Accessories Store",
   "maintype": "Accessories"
 },
 {
   "idx": 145,
   "county": "WAKE County, North Carolina",
   "countylat": 35.7903,
   "countylng": -78.6503,
   "name": "pulse medical",
   "lat": 35.790929,
   "lng": -78.651453,
   "vmaintype": "Acupuncturist",
   "maintype": "Accessories"
 },
 {
   "idx": 3223,
   "county": "BURKE County, North Carolina",
   "countylat": 35.7496,
   "countylng": -81.7048,
   "name": "alpine acupuncture",
   "lat": 35.75174927,
   "lng": -81.70090473,
   "vmaintype": "Acupuncturist",
   "maintype": "Accessories"
 },
 {
   "idx": 9734,
   "county": "ALLEGHANY County, North Carolina",
   "countylat": 36.4913,
   "countylng": -81.1279,
   "name": "Tif's",
   "lat": 36.50343704,
   "lng": -81.12329865,
   "vmaintype": "Adult Boutique",
   "maintype": "Accessories"
 },
 {
   "idx": 1332,
   "county": "ONSLOW County, North Carolina",
   "countylat": 34.7321,
   "countylng": -77.4321,
   "name": "P652",
   "lat": 34.7171936,
   "lng": -77.44216919,
   "vmaintype": "Airport",
   "maintype": "Airport"
 },
 {
   "idx": 2100,
   "county": "ROWAN County, North Carolina",
   "countylat": 35.6395,
   "countylng": -80.5248,
   "name": "Rowan County Airport",
   "lat": 35.63741114,
   "lng": -80.53130256,
   "vmaintype": "Airport",
   "maintype": "Airport"
 },
 {
   "idx": 2125,
   "county": "ROWAN County, North Carolina",
   "countylat": 35.6395,
   "countylng": -80.5248,
   "name": "Carolina Avionics Group",
   "lat": 35.64342117,
   "lng": -80.51879883,
   "vmaintype": "Airport",
   "maintype": "Airport"
 },
 {
   "idx": 2265,
   "county": "ROBESON County, North Carolina",
   "countylat": 34.6402,
   "countylng": -79.1039,
   "name": "Lumberton Municipal Airport",
   "lat": 34.61543795,
   "lng": -79.06006706,
   "vmaintype": "Airport",
   "maintype": "Airport"
 },
 {
   "idx": 2895,
   "county": "MOORE County, North Carolina",
   "countylat": 35.3106,
   "countylng": -79.4814,
   "name": "Gilliam McConnell Airport",
   "lat": 35.340873,
   "lng": -79.437153,
   "vmaintype": "Airport",
   "maintype": "Airport"
 },
 {
   "idx": 4176,
   "county": "RUTHERFORD County, North Carolina",
   "countylat": 35.4026,
   "countylng": -81.9198,
   "name": "Rutherford County Airport",
   "lat": 35.43262812,
   "lng": -81.93733493,
   "vmaintype": "Airport",
   "maintype": "Airport"
 },
 {
   "idx": 4358,
   "county": "SAMPSON County, North Carolina",
   "countylat": 34.9915,
   "countylng": -78.3714,
   "name": "Clinton Sampson County Airport (KCTZ)",
   "lat": 34.970595,
   "lng": -78.370469,
   "vmaintype": "Airport",
   "maintype": "Airport"
 },
 {
   "idx": 5229,
   "county": "COLUMBUS County, North Carolina",
   "countylat": 34.2656,
   "countylng": -78.655,
   "name": "Columbus County Airport",
   "lat": 34.27486284,
   "lng": -78.71516108,
   "vmaintype": "Airport",
   "maintype": "Airport"
 },
 {
   "idx": 5465,
   "county": "HOKE County, North Carolina",
   "countylat": 35.0175,
   "countylng": -79.2373,
   "name": "PK Airpark (5W4)",
   "lat": 35.01860862,
   "lng": -79.18966194,
   "vmaintype": "Airport",
   "maintype": "Airport"
 },
 {
   "idx": 5692,
   "county": "HALIFAX County, North Carolina",
   "countylat": 36.2575,
   "countylng": -77.6517,
   "name": "Halifax Regional airport",
   "lat": 36.32841532,
   "lng": -77.63822268,
   "vmaintype": "Airport",
   "maintype": "Airport"
 },
 {
   "idx": 7103,
   "county": "MACON County, North Carolina",
   "countylat": 35.1505,
   "countylng": -83.4221,
   "name": "Macon County Airport",
   "lat": 35.159652,
   "lng": -83.45222794,
   "vmaintype": "Airport",
   "maintype": "Airport"
 },
 {
   "idx": 7712,
   "county": "CURRITUCK County, North Carolina",
   "countylat": 36.4031,
   "countylng": -76.0059,
   "name": "Currituck County Airport",
   "lat": 36.39902954,
   "lng": -76.0140673,
   "vmaintype": "Airport",
   "maintype": "Airport"
 },
 {
   "idx": 2079,
   "county": "ROWAN County, North Carolina",
   "countylat": 35.6395,
   "countylng": -80.5248,
   "name": "Delhaize Hangar",
   "lat": 35.63734234,
   "lng": -80.52070931,
   "vmaintype": "Airport Gate",
   "maintype": "Airport"
 },
 {
   "idx": 4480,
   "county": "STANLY County, North Carolina",
   "countylat": 35.312,
   "countylng": -80.251,
   "name": "The Landing",
   "lat": 35.338087,
   "lng": -80.20335,
   "vmaintype": "Airport Gate",
   "maintype": "Airport"
 },
 {
   "idx": 4469,
   "county": "STANLY County, North Carolina",
   "countylat": 35.312,
   "countylng": -80.251,
   "name": "The Strip",
   "lat": 35.33808,
   "lng": -80.203327,
   "vmaintype": "Airport Terminal",
   "maintype": "Airport"
 },
 {
   "idx": 1315,
   "county": "ONSLOW County, North Carolina",
   "countylat": 34.7321,
   "countylng": -77.4321,
   "name": "runway 01/19",
   "lat": 34.73094537,
   "lng": -77.42561136,
   "vmaintype": "Airport Tram",
   "maintype": "Airport"
 },
 {
   "idx": 53,
   "county": "MECKLENBURG County, North Carolina",
   "countylat": 35.2467,
   "countylng": -80.8328,
   "name": "Tatsis",
   "lat": 35.250653,
   "lng": -80.827034,
   "vmaintype": "American Restaurant",
   "maintype": "Food"
 },
 {
   "idx": 110,
   "county": "MECKLENBURG County, North Carolina",
   "countylat": 35.2467,
   "countylng": -80.8328,
   "name": "K&S Cafeteria",
   "lat": 35.248101,
   "lng": -80.828967,
   "vmaintype": "American Restaurant",
   "maintype": "Food"
 },
 {
   "idx": 249,
   "county": "GUILFORD County, North Carolina",
   "countylat": 36.0795,
   "countylng": -79.7889,
   "name": "Jakes Dinner",
   "lat": 36.07823181,
   "lng": -79.79273987,
   "vmaintype": "American Restaurant",
   "maintype": "Food"
 },
 {
   "idx": 290,
   "county": "GUILFORD County, North Carolina",
   "countylat": 36.0795,
   "countylng": -79.7889,
   "name": "Panera Bread",
   "lat": 36.07680433,
   "lng": -79.78977145,
   "vmaintype": "American Restaurant",
   "maintype": "Food"
 },
 {
   "idx": 341,
   "county": "FORSYTH County, North Carolina",
   "countylat": 36.1306,
   "countylng": -80.2563,
   "name": "Deacon Tower Grille",
   "lat": 36.13049416,
   "lng": -80.25472491,
   "vmaintype": "American Restaurant",
   "maintype": "Food"
 },
 {
   "idx": 355,
   "county": "FORSYTH County, North Carolina",
   "countylat": 36.1306,
   "countylng": -80.2563,
   "name": "IHOP",
   "lat": 36.129,
   "lng": -80.26152,
   "vmaintype": "American Restaurant",
   "maintype": "Food"
 },
 {
   "idx": 428,
   "county": "CUMBERLAND County, North Carolina",
   "countylat": 35.0486,
   "countylng": -78.8276,
   "name": "Kinlaw's Welcome Grill",
   "lat": 35.038573,
   "lng": -78.84423,
   "vmaintype": "American Restaurant",
   "maintype": "Food"
 },
 {
   "idx": 493,
   "county": "CUMBERLAND County, North Carolina",
   "countylat": 35.0486,
   "countylng": -78.8276,
   "name": "Riverside Grill",
   "lat": 35.046626,
   "lng": -78.856399,
   "vmaintype": "American Restaurant",
   "maintype": "Food"
 },
 {
   "idx": 613,
   "county": "DURHAM County, North Carolina",
   "countylat": 36.036,
   "countylng": -78.8766,
   "name": "Currents",
   "lat": 36.029544,
   "lng": -78.89005,
   "vmaintype": "American Restaurant",
   "maintype": "Food"
 },
 {
   "idx": 649,
   "county": "BUNCOMBE County, North Carolina",
   "countylat": 35.6112,
   "countylng": -82.5301,
   "name": "Cracker Barrel Old Country Store",
   "lat": 35.59791848,
   "lng": -82.53404363,
   "vmaintype": "American Restaurant",
   "maintype": "Food"
 },
 {
   "idx": 686,
   "county": "BUNCOMBE County, North Carolina",
   "countylat": 35.6112,
   "countylng": -82.5301,
   "name": "Tupelo Honey Cafe",
   "lat": 35.62024737,
   "lng": -82.5426129,
   "vmaintype": "American Restaurant",
   "maintype": "Food"
 },
 {
   "idx": 737,
   "county": "BUNCOMBE County, North Carolina",
   "countylat": 35.6112,
   "countylng": -82.5301,
   "name": "Horizons 4 Star At Grove Park",
   "lat": 35.61924958,
   "lng": -82.54230648,
   "vmaintype": "American Restaurant",
   "maintype": "Food"
 },
 {
   "idx": 850,
   "county": "UNION County, North Carolina",
   "countylat": 34.9884,
   "countylng": -80.5307,
   "name": "Gus",
   "lat": 34.98655466,
   "lng": -80.52494243,
   "vmaintype": "American Restaurant",
   "maintype": "Food"
 },
 {
   "idx": 1022,
   "county": "GASTON County, North Carolina",
   "countylat": 35.2944,
   "countylng": -81.1803,
   "name": "Shomars",
   "lat": 35.285831,
   "lng": -81.188534,
   "vmaintype": "American Restaurant",
   "maintype": "Food"
 },
 {
   "idx": 1023,
   "county": "GASTON County, North Carolina",
   "countylat": 35.2944,
   "countylng": -81.1803,
   "name": "Fresher Than Fresh",
   "lat": 35.290188,
   "lng": -81.191688,
   "vmaintype": "American Restaurant",
   "maintype": "Food"
 },
 {
   "idx": 1106,
   "county": "CABARRUS County, North Carolina",
   "countylat": 35.3868,
   "countylng": -80.5519,
   "name": "Parkway House Family Restaurant",
   "lat": 35.38829146,
   "lng": -80.56152513,
   "vmaintype": "American Restaurant",
   "maintype": "Food"
 },
 {
   "idx": 1231,
   "county": "JOHNSTON County, North Carolina",
   "countylat": 35.5178,
   "countylng": -78.3657,
   "name": "7th Street Marketplace",
   "lat": 35.50709869,
   "lng": -78.35426438,
   "vmaintype": "American Restaurant",
   "maintype": "Food"
 },
 {
   "idx": 1325,
   "county": "ONSLOW County, North Carolina",
   "countylat": 34.7321,
   "countylng": -77.4321,
   "name": "The Restaurant",
   "lat": 34.741415,
   "lng": -77.419253,
   "vmaintype": "American Restaurant",
   "maintype": "Food"
 },
 {
   "idx": 1327,
   "county": "ONSLOW County, North Carolina",
   "countylat": 34.7321,
   "countylng": -77.4321,
   "name": "Mcavoy's",
   "lat": 34.71997522,
   "lng": -77.44305554,
   "vmaintype": "American Restaurant",
   "maintype": "Food"
 },
 {
   "idx": 1441,
   "county": "PITT County, North Carolina",
   "countylat": 35.5933,
   "countylng": -77.3745,
   "name": "BW3s",
   "lat": 35.58957,
   "lng": -77.37277,
   "vmaintype": "American Restaurant",
   "maintype": "Food"
 },
 {
   "idx": 1451,
   "county": "IREDELL County, North Carolina",
   "countylat": 35.807,
   "countylng": -80.8734,
   "name": "Cracker Barrel Old Country Store",
   "lat": 35.80873949,
   "lng": -80.87190677,
   "vmaintype": "American Restaurant",
   "maintype": "Food"
 },
 {
   "idx": 1470,
   "county": "IREDELL County, North Carolina",
   "countylat": 35.807,
   "countylng": -80.8734,
   "name": "Applebee's Grill + Bar",
   "lat": 35.80907051,
   "lng": -80.86971172,
   "vmaintype": "American Restaurant",
   "maintype": "Food"
 },
 {
   "idx": 1627,
   "county": "DAVIDSON County, North Carolina",
   "countylat": 35.7934,
   "countylng": -80.2127,
   "name": "La Carreta",
   "lat": 35.79391098,
   "lng": -80.26052856,
   "vmaintype": "American Restaurant",
   "maintype": "Food"
 },
 {
   "idx": 1656,
   "county": "DAVIDSON County, North Carolina",
   "countylat": 35.7934,
   "countylng": -80.2127,
   "name": "Randys",
   "lat": 35.81196437,
   "lng": -80.1880689,
   "vmaintype": "American Restaurant",
   "maintype": "Food"
 },
 {
   "idx": 1858,
   "county": "CATAWBA County, North Carolina",
   "countylat": 35.662,
   "countylng": -81.2151,
   "name": "Rawride Rancher Stand @ Downtown Newton",
   "lat": 35.663462,
   "lng": -81.221918,
   "vmaintype": "American Restaurant",
   "maintype": "Food"
 },
 {
   "idx": 1872,
   "county": "CATAWBA County, North Carolina",
   "countylat": 35.662,
   "countylng": -81.2151,
   "name": "Blue Moon Tavern",
   "lat": 35.66372284,
   "lng": -81.22236506,
   "vmaintype": "American Restaurant",
   "maintype": "Food"
 },
 {
   "idx": 1960,
   "county": "RANDOLPH County, North Carolina",
   "countylat": 35.7103,
   "countylng": -79.806,
   "name": "CJ's Olde Towne Restaurant",
   "lat": 35.70947848,
   "lng": -79.81591701,
   "vmaintype": "American Restaurant",
   "maintype": "Food"
 },
 {
   "idx": 2176,
   "county": "ROBESON County, North Carolina",
   "countylat": 34.6402,
   "countylng": -79.1039,
   "name": "Ruby Tuesday",
   "lat": 34.62270039,
   "lng": -79.0491115,
   "vmaintype": "American Restaurant",
   "maintype": "Food"
 },
 {
   "idx": 2466,
   "county": "BRUNSWICK County, North Carolina",
   "countylat": 34.071,
   "countylng": -78.2377,
   "name": "Brunswick County Cafeteria",
   "lat": 34.05703956,
   "lng": -78.16428409,
   "vmaintype": "American Restaurant",
   "maintype": "Food"
 },
 {
   "idx": 2584,
   "county": "WAYNE County, North Carolina",
   "countylat": 35.364,
   "countylng": -78.004,
   "name": "Sof-T-Shop",
   "lat": 35.377732,
   "lng": -77.997946,
   "vmaintype": "American Restaurant",
   "maintype": "Food"
 },
 {
   "idx": 2675,
   "county": "HENDERSON County, North Carolina",
   "countylat": 35.3363,
   "countylng": -82.48,
   "name": "Pattycakes",
   "lat": 35.3314318,
   "lng": -82.47917041,
   "vmaintype": "American Restaurant",
   "maintype": "Food"
 },
 {
   "idx": 2797,
   "county": "MOORE County, North Carolina",
   "countylat": 35.3106,
   "countylng": -79.4814,
   "name": "Ronnie's Chuck Wagon",
   "lat": 35.34363093,
   "lng": -79.41447921,
   "vmaintype": "American Restaurant",
   "maintype": "Food"
 },
 {
   "idx": 2883,
   "county": "MOORE County, North Carolina",
   "countylat": 35.3106,
   "countylng": -79.4814,
   "name": "Lunch Box That Rocks",
   "lat": 35.33994737,
   "lng": -79.42670866,
   "vmaintype": "American Restaurant",
   "maintype": "Food"
 },
 {
   "idx": 2884,
   "county": "MOORE County, North Carolina",
   "countylat": 35.3106,
   "countylng": -79.4814,
   "name": "Riley's Ranch",
   "lat": 35.327796,
   "lng": -79.470791,
   "vmaintype": "American Restaurant",
   "maintype": "Food"
 },
 {
   "idx": 2886,
   "county": "MOORE County, North Carolina",
   "countylat": 35.3106,
   "countylng": -79.4814,
   "name": "Roadhouse 73",
   "lat": 35.25082779,
   "lng": -79.46498871,
   "vmaintype": "American Restaurant",
   "maintype": "Food"
 },
 {
   "idx": 2995,
   "county": "CLEVELAND County, North Carolina",
   "countylat": 35.3341,
   "countylng": -81.5555,
   "name": "Oasis Cafe",
   "lat": 35.30432384,
   "lng": -81.53575912,
   "vmaintype": "American Restaurant",
   "maintype": "Food"
 },
 {
   "idx": 3000,
   "county": "CLEVELAND County, North Carolina",
   "countylat": 35.3341,
   "countylng": -81.5555,
   "name": "North Lake Country Club",
   "lat": 35.305758,
   "lng": -81.536208,
   "vmaintype": "American Restaurant",
   "maintype": "Food"
 },
 {
   "idx": 3104,
   "county": "NASH County, North Carolina",
   "countylat": 35.9673,
   "countylng": -77.9864,
   "name": "Nashville Exchange",
   "lat": 35.974979,
   "lng": -77.968658,
   "vmaintype": "American Restaurant",
   "maintype": "Food"
 },
 {
   "idx": 3105,
   "county": "NASH County, North Carolina",
   "countylat": 35.9673,
   "countylng": -77.9864,
   "name": "Church Street Grill",
   "lat": 35.97350769,
   "lng": -77.96782525,
   "vmaintype": "American Restaurant",
   "maintype": "Food"
 },
 {
   "idx": 3124,
   "county": "ROCKINGHAM County, North Carolina",
   "countylat": 36.396,
   "countylng": -79.775,
   "name": "Mom's Kitchen",
   "lat": 36.38579188,
   "lng": -79.74422842,
   "vmaintype": "American Restaurant",
   "maintype": "Food"
 },
 {
   "idx": 3184,
   "county": "ROCKINGHAM County, North Carolina",
   "countylat": 36.396,
   "countylng": -79.775,
   "name": "PattyMikes II",
   "lat": 36.467965,
   "lng": -79.776922,
   "vmaintype": "American Restaurant",
   "maintype": "Food"
 },
 {
   "idx": 3242,
   "county": "BURKE County, North Carolina",
   "countylat": 35.7496,
   "countylng": -81.7048,
   "name": "Friday Friends",
   "lat": 35.74696323,
   "lng": -81.70590943,
   "vmaintype": "American Restaurant",
   "maintype": "Food"
 },
 {
   "idx": 3313,
   "county": "BURKE County, North Carolina",
   "countylat": 35.7496,
   "countylng": -81.7048,
   "name": "Appalachian Table",
   "lat": 35.749336,
   "lng": -81.70006,
   "vmaintype": "American Restaurant",
   "maintype": "Food"
 },
 {
   "idx": 3415,
   "county": "LINCOLN County, North Carolina",
   "countylat": 35.4856,
   "countylng": -81.2235,
   "name": "Hannah's BBQ",
   "lat": 35.47888465,
   "lng": -81.22691412,
   "vmaintype": "American Restaurant",
   "maintype": "Food"
 },
 {
   "idx": 3443,
   "county": "CALDWELL County, North Carolina",
   "countylat": 35.953,
   "countylng": -81.5464,
   "name": "FATZ",
   "lat": 35.92930176,
   "lng": -81.52781554,
   "vmaintype": "American Restaurant",
   "maintype": "Food"
 },
 {
   "idx": 3557,
   "county": "WILSON County, North Carolina",
   "countylat": 35.7051,
   "countylng": -77.9187,
   "name": "Kountry Kitchen",
   "lat": 35.71408024,
   "lng": -77.93212893,
   "vmaintype": "American Restaurant",
   "maintype": "Food"
 },
 {
   "idx": 3743,
   "county": "SURRY County, North Carolina",
   "countylat": 36.4148,
   "countylng": -80.6881,
   "name": "Fletcher's",
   "lat": 36.39539402,
   "lng": -80.72324432,
   "vmaintype": "American Restaurant",
   "maintype": "Food"
 },
 {
   "idx": 3748,
   "county": "SURRY County, North Carolina",
   "countylat": 36.4148,
   "countylng": -80.6881,
   "name": "The Plaza Restaurant",
   "lat": 36.39767206,
   "lng": -80.72335551,
   "vmaintype": "American Restaurant",
   "maintype": "Food"
 },
 {
   "idx": 3761,
   "county": "SURRY County, North Carolina",
   "countylat": 36.4148,
   "countylng": -80.6881,
   "name": "The Lantern",
   "lat": 36.397723,
   "lng": -80.723271,
   "vmaintype": "American Restaurant",
   "maintype": "Food"
 },
 {
   "idx": 3988,
   "county": "WILKES County, North Carolina",
   "countylat": 36.2063,
   "countylng": -81.1634,
   "name": "Smokehouse",
   "lat": 36.18221517,
   "lng": -81.18817887,
   "vmaintype": "American Restaurant",
   "maintype": "Food"
 },
 {
   "idx": 3991,
   "county": "WILKES County, North Carolina",
   "countylat": 36.2063,
   "countylng": -81.1634,
   "name": "Save A Lot",
   "lat": 36.23012444,
   "lng": -81.16088696,
   "vmaintype": "American Restaurant",
   "maintype": "Food"
 },
 {
   "idx": 4056,
   "county": "WILKES County, North Carolina",
   "countylat": 36.2063,
   "countylng": -81.1634,
   "name": "Little Dipper",
   "lat": 36.215461,
   "lng": -81.164601,
   "vmaintype": "American Restaurant",
   "maintype": "Food"
 },
 {
   "idx": 4060,
   "county": "WILKES County, North Carolina",
   "countylat": 36.2063,
   "countylng": -81.1634,
   "name": "North Wilkesboro Elks Lodge",
   "lat": 36.158542,
   "lng": -81.144482,
   "vmaintype": "American Restaurant",
   "maintype": "Food"
 },
 {
   "idx": 4114,
   "county": "RUTHERFORD County, North Carolina",
   "countylat": 35.4026,
   "countylng": -81.9198,
   "name": "Shake Shop",
   "lat": 35.360033,
   "lng": -81.936158,
   "vmaintype": "American Restaurant",
   "maintype": "Food"
 },
 {
   "idx": 4174,
   "county": "RUTHERFORD County, North Carolina",
   "countylat": 35.4026,
   "countylng": -81.9198,
   "name": "Water Oak Restaurant",
   "lat": 35.39796833,
   "lng": -81.95266057,
   "vmaintype": "American Restaurant",
   "maintype": "Food"
 },
 {
   "idx": 4178,
   "county": "RUTHERFORD County, North Carolina",
   "countylat": 35.4026,
   "countylng": -81.9198,
   "name": "Red Door Grill",
   "lat": 35.364254,
   "lng": -81.947878,
   "vmaintype": "American Restaurant",
   "maintype": "Food"
 },
 {
   "idx": 4208,
   "county": "FRANKLIN County, North Carolina",
   "countylat": 36.0828,
   "countylng": -78.2857,
   "name": "Sunrise Biscuit Kitchen",
   "lat": 36.09322931,
   "lng": -78.29898198,
   "vmaintype": "American Restaurant",
   "maintype": "Food"
 },
 {
   "idx": 4209,
   "county": "FRANKLIN County, North Carolina",
   "countylat": 36.0828,
   "countylng": -78.2857,
   "name": "Remington Grill Burgers & BBQ - Louisburg",
   "lat": 36.090948,
   "lng": -78.299692,
   "vmaintype": "American Restaurant",
   "maintype": "Food"
 },
 {
   "idx": 4331,
   "county": "SAMPSON County, North Carolina",
   "countylat": 34.9915,
   "countylng": -78.3714,
   "name": "Ruby Tuesday",
   "lat": 34.993017,
   "lng": -78.34304853,
   "vmaintype": "American Restaurant",
   "maintype": "Food"
 },
 {
   "idx": 4382,
   "county": "SAMPSON County, North Carolina",
   "countylat": 34.9915,
   "countylng": -78.3714,
   "name": "One Good Dog",
   "lat": 34.99186788,
   "lng": -78.35558072,
   "vmaintype": "American Restaurant",
   "maintype": "Food"
 },
 {
   "idx": 4594,
   "county": "HAYWOOD County, North Carolina",
   "countylat": 35.556,
   "countylng": -82.9822,
   "name": "Haywood 209 Cafe",
   "lat": 35.567274,
   "lng": -82.956905,
   "vmaintype": "American Restaurant",
   "maintype": "Food"
 },
 {
   "idx": 4761,
   "county": "PENDER County, North Carolina",
   "countylat": 34.5248,
   "countylng": -77.9051,
   "name": "HHC Dining Room",
   "lat": 34.54890042,
   "lng": -77.92130125,
   "vmaintype": "American Restaurant",
   "maintype": "Food"
 },
 {
   "idx": 4821,
   "county": "PENDER County, North Carolina",
   "countylat": 34.5248,
   "countylng": -77.9051,
   "name": "Whistle Stop Cafe",
   "lat": 34.54971,
   "lng": -77.92717338,
   "vmaintype": "American Restaurant",
   "maintype": "Food"
 },
 {
   "idx": 4829,
   "county": "PENDER County, North Carolina",
   "countylat": 34.5248,
   "countylng": -77.9051,
   "name": "Harvey's",
   "lat": 34.54982565,
   "lng": -77.9268804,
   "vmaintype": "American Restaurant",
   "maintype": "Food"
 },
 {
   "idx": 4835,
   "county": "PENDER County, North Carolina",
   "countylat": 34.5248,
   "countylng": -77.9051,
   "name": "Bandana's",
   "lat": 34.54996278,
   "lng": -77.9241693,
   "vmaintype": "American Restaurant",
   "maintype": "Food"
 },
 {
   "idx": 4866,
   "county": "GRANVILLE County, North Carolina",
   "countylat": 36.3041,
   "countylng": -78.6527,
   "name": "George's Oxford Village Family Restaurant",
   "lat": 36.29413321,
   "lng": -78.60090382,
   "vmaintype": "American Restaurant",
   "maintype": "Food"
 },
 {
   "idx": 5031,
   "county": "DUPLIN County, North Carolina",
   "countylat": 34.9365,
   "countylng": -77.933,
   "name": "The filling station",
   "lat": 34.97646206,
   "lng": -77.9454848,
   "vmaintype": "American Restaurant",
   "maintype": "Food"
 },
 {
   "idx": 5036,
   "county": "DUPLIN County, North Carolina",
   "countylat": 34.9365,
   "countylng": -77.933,
   "name": "Hwy 55 burgers shakes and fries",
   "lat": 34.96050176,
   "lng": -77.96300405,
   "vmaintype": "American Restaurant",
   "maintype": "Food"
 },
 {
   "idx": 5062,
   "county": "LENOIR County, North Carolina",
   "countylat": 35.2388,
   "countylng": -77.6412,
   "name": "Ruby Tuesday",
   "lat": 35.26446584,
   "lng": -77.63989373,
   "vmaintype": "American Restaurant",
   "maintype": "Food"
 },
 {
   "idx": 5080,
   "county": "LENOIR County, North Carolina",
   "countylat": 35.2388,
   "countylng": -77.6412,
   "name": "Andy's/Hwy 55",
   "lat": 35.260649,
   "lng": -77.645798,
   "vmaintype": "American Restaurant",
   "maintype": "Food"
 },
 {
   "idx": 5150,
   "county": "LENOIR County, North Carolina",
   "countylat": 35.2388,
   "countylng": -77.6412,
   "name": "Andy's Cheeseburgers & Cheesesteaks",
   "lat": 35.26095553,
   "lng": -77.64544939,
   "vmaintype": "American Restaurant",
   "maintype": "Food"
 },
 {
   "idx": 5354,
   "county": "WATAUGA County, North Carolina",
   "countylat": 36.2311,
   "countylng": -81.6964,
   "name": "Reid's Cafe & Catering",
   "lat": 36.11816788,
   "lng": -81.83676147,
   "vmaintype": "American Restaurant",
   "maintype": "Food"
 },
 {
   "idx": 5454,
   "county": "HOKE County, North Carolina",
   "countylat": 35.0175,
   "countylng": -79.2373,
   "name": "Aviator's Grill And Pub",
   "lat": 35.018186,
   "lng": -79.189999,
   "vmaintype": "American Restaurant",
   "maintype": "Food"
 },
 {
   "idx": 5483,
   "county": "EDGECOMBE County, North Carolina",
   "countylat": 35.9129,
   "countylng": -77.5971,
   "name": "On The Square",
   "lat": 35.89765135,
   "lng": -77.53393785,
   "vmaintype": "American Restaurant",
   "maintype": "Food"
 },
 {
   "idx": 5581,
   "county": "EDGECOMBE County, North Carolina",
   "countylat": 35.9129,
   "countylng": -77.5971,
   "name": "Everlean's Cafe",
   "lat": 35.90639717,
   "lng": -77.55566986,
   "vmaintype": "American Restaurant",
   "maintype": "Food"
 },
 {
   "idx": 5693,
   "county": "HALIFAX County, North Carolina",
   "countylat": 36.2575,
   "countylng": -77.6517,
   "name": "A&B Milling Company",
   "lat": 36.18157578,
   "lng": -77.66400146,
   "vmaintype": "American Restaurant",
   "maintype": "Food"
 },
 {
   "idx": 5867,
   "county": "STOKES County, North Carolina",
   "countylat": 36.4019,
   "countylng": -80.2395,
   "name": "Artist's Way Creations",
   "lat": 36.4090914,
   "lng": -80.20609617,
   "vmaintype": "American Restaurant",
   "maintype": "Food"
 },
 {
   "idx": 5901,
   "county": "STOKES County, North Carolina",
   "countylat": 36.4019,
   "countylng": -80.2395,
   "name": "KiTcHeN!",
   "lat": 36.41280746,
   "lng": -80.22021484,
   "vmaintype": "American Restaurant",
   "maintype": "Food"
 },
 {
   "idx": 5937,
   "county": "MCDOWELL County, North Carolina",
   "countylat": 35.6817,
   "countylng": -82.0493,
   "name": "FATZ",
   "lat": 35.70327358,
   "lng": -82.03948133,
   "vmaintype": "American Restaurant",
   "maintype": "Food"
 },
 {
   "idx": 6061,
   "county": "RICHMOND County, North Carolina",
   "countylat": 35.0059,
   "countylng": -79.7478,
   "name": "Shoneys",
   "lat": 34.96283868,
   "lng": -79.72838962,
   "vmaintype": "American Restaurant",
   "maintype": "Food"
 },
 {
   "idx": 6145,
   "county": "VANCE County, North Carolina",
   "countylat": 36.3649,
   "countylng": -78.4079,
   "name": "mamas country kitchen & grill",
   "lat": 36.35652361,
   "lng": -78.420304,
   "vmaintype": "American Restaurant",
   "maintype": "Food"
 },
 {
   "idx": 6430,
   "county": "DAVIE County, North Carolina",
   "countylat": 35.9291,
   "countylng": -80.5445,
   "name": "Family Cafe",
   "lat": 35.950423,
   "lng": -80.533373,
   "vmaintype": "American Restaurant",
   "maintype": "Food"
 },
 {
   "idx": 6785,
   "county": "YADKIN County, North Carolina",
   "countylat": 36.1605,
   "countylng": -80.6652,
   "name": "Ace's",
   "lat": 36.13470576,
   "lng": -80.65752289,
   "vmaintype": "American Restaurant",
   "maintype": "Food"
 },
 {
   "idx": 6899,
   "county": "ALEXANDER County, North Carolina",
   "countylat": 35.921,
   "countylng": -81.177,
   "name": "Burger Basket",
   "lat": 35.921621,
   "lng": -81.185689,
   "vmaintype": "American Restaurant",
   "maintype": "Food"
 },
 {
   "idx": 6999,
   "county": "SCOTLAND County, North Carolina",
   "countylat": 34.8409,
   "countylng": -79.4804,
   "name": "General McArthur's Restaurant",
   "lat": 34.717924,
   "lng": -79.49099,
   "vmaintype": "American Restaurant",
   "maintype": "Food"
 },
 {
   "idx": 7001,
   "county": "SCOTLAND County, North Carolina",
   "countylat": 34.8409,
   "countylng": -79.4804,
   "name": "Nic's Pic Kwik",
   "lat": 34.78186035,
   "lng": -79.45819092,
   "vmaintype": "American Restaurant",
   "maintype": "Food"
 },
 {
   "idx": 7141,
   "county": "TRANSYLVANIA County, North Carolina",
   "countylat": 35.2021,
   "countylng": -82.7982,
   "name": "Save-More Foods",
   "lat": 35.21724701,
   "lng": -82.75027466,
   "vmaintype": "American Restaurant",
   "maintype": "Food"
 },
 {
   "idx": 7158,
   "county": "TRANSYLVANIA County, North Carolina",
   "countylat": 35.2021,
   "countylng": -82.7982,
   "name": "fatz cafe",
   "lat": 35.22525678,
   "lng": -82.74305068,
   "vmaintype": "American Restaurant",
   "maintype": "Food"
 },
 {
   "idx": 7282,
   "county": "BLADEN County, North Carolina",
   "countylat": 34.6146,
   "countylng": -78.5636,
   "name": "Goldstone's Restaurant",
   "lat": 34.64856153,
   "lng": -78.56881606,
   "vmaintype": "American Restaurant",
   "maintype": "Food"
 },
 {
   "idx": 7340,
   "county": "BLADEN County, North Carolina",
   "countylat": 34.6146,
   "countylng": -78.5636,
   "name": "Woodies Grill",
   "lat": 34.64851398,
   "lng": -78.56887705,
   "vmaintype": "American Restaurant",
   "maintype": "Food"
 },
 {
   "idx": 7349,
   "county": "BLADEN County, North Carolina",
   "countylat": 34.6146,
   "countylng": -78.5636,
   "name": "christopher's steakhouse and seafood",
   "lat": 34.626693,
   "lng": -78.598138,
   "vmaintype": "American Restaurant",
   "maintype": "Food"
 },
 {
   "idx": 7360,
   "county": "BLADEN County, North Carolina",
   "countylat": 34.6146,
   "countylng": -78.5636,
   "name": "Georgios",
   "lat": 34.62348979,
   "lng": -78.60882007,
   "vmaintype": "American Restaurant",
   "maintype": "Food"
 },
 {
   "idx": 7382,
   "county": "CHEROKEE County, North Carolina",
   "countylat": 35.1339,
   "countylng": -84.0635,
   "name": "Brother's Restaurant",
   "lat": 35.10696809,
   "lng": -84.01030457,
   "vmaintype": "American Restaurant",
   "maintype": "Food"
 },
 {
   "idx": 7466,
   "county": "CHEROKEE County, North Carolina",
   "countylat": 35.1339,
   "countylng": -84.0635,
   "name": "red brick deli",
   "lat": 35.089073,
   "lng": -84.035449,
   "vmaintype": "American Restaurant",
   "maintype": "Food"
 },
 {
   "idx": 7470,
   "county": "CHEROKEE County, North Carolina",
   "countylat": 35.1339,
   "countylng": -84.0635,
   "name": "Burger Boy",
   "lat": 35.098387,
   "lng": -84.022094,
   "vmaintype": "American Restaurant",
   "maintype": "Food"
 },
 {
   "idx": 7689,
   "county": "ASHE County, North Carolina",
   "countylat": 36.4345,
   "countylng": -81.5005,
   "name": "The Junction Restaurant",
   "lat": 36.411585,
   "lng": -81.481563,
   "vmaintype": "American Restaurant",
   "maintype": "Food"
 },
 {
   "idx": 7732,
   "county": "CURRITUCK County, North Carolina",
   "countylat": 36.4031,
   "countylng": -76.0059,
   "name": "Pass the Salt",
   "lat": 36.449556,
   "lng": -76.017237,
   "vmaintype": "American Restaurant",
   "maintype": "Food"
 },
 {
   "idx": 7890,
   "county": "ANSON County, North Carolina",
   "countylat": 34.9738,
   "countylng": -80.1027,
   "name": "Rumors",
   "lat": 34.966219,
   "lng": -80.07586,
   "vmaintype": "American Restaurant",
   "maintype": "Food"
 },
 {
   "idx": 7907,
   "county": "ANSON County, North Carolina",
   "countylat": 34.9738,
   "countylng": -80.1027,
   "name": "The Hub",
   "lat": 34.97863881,
   "lng": -80.09342194,
   "vmaintype": "American Restaurant",
   "maintype": "Food"
 },
 {
   "idx": 7936,
   "county": "HERTFORD County, North Carolina",
   "countylat": 36.3591,
   "countylng": -76.982,
   "name": "Uptown Cafe",
   "lat": 36.28915549,
   "lng": -76.98908856,
   "vmaintype": "American Restaurant",
   "maintype": "Food"
 },
 {
   "idx": 8003,
   "county": "HERTFORD County, North Carolina",
   "countylat": 36.3591,
   "countylng": -76.982,
   "name": "Corner CafÃƒÂ©",
   "lat": 36.395216,
   "lng": -76.933125,
   "vmaintype": "American Restaurant",
   "maintype": "Food"
 },
 {
   "idx": 8204,
   "county": "CASWELL County, North Carolina",
   "countylat": 36.3932,
   "countylng": -79.3335,
   "name": "Westside Grill",
   "lat": 36.41744614,
   "lng": -79.35781097,
   "vmaintype": "American Restaurant",
   "maintype": "Food"
 },
 {
   "idx": 8207,
   "county": "CASWELL County, North Carolina",
   "countylat": 36.3932,
   "countylng": -79.3335,
   "name": "Yancey House",
   "lat": 36.41606212,
   "lng": -79.33882246,
   "vmaintype": "American Restaurant",
   "maintype": "Food"
 },
 {
   "idx": 8310,
   "county": "MADISON County, North Carolina",
   "countylat": 35.858,
   "countylng": -82.7058,
   "name": "Marshall's Main Street Cafe",
   "lat": 35.797565,
   "lng": -82.68433,
   "vmaintype": "American Restaurant",
   "maintype": "Food"
 },
 {
   "idx": 8327,
   "county": "MADISON County, North Carolina",
   "countylat": 35.858,
   "countylng": -82.7058,
   "name": "Good Stuff",
   "lat": 35.7971556,
   "lng": -82.68440744,
   "vmaintype": "American Restaurant",
   "maintype": "Food"
 },
 {
   "idx": 8328,
   "county": "MADISON County, North Carolina",
   "countylat": 35.858,
   "countylng": -82.7058,
   "name": "Burger Parlor",
   "lat": 35.81326246,
   "lng": -82.67440438,
   "vmaintype": "American Restaurant",
   "maintype": "Food"
 },
 {
   "idx": 8452,
   "county": "POLK County, North Carolina",
   "countylat": 35.2793,
   "countylng": -82.1697,
   "name": "Southern Manners",
   "lat": 35.252984,
   "lng": -82.196992,
   "vmaintype": "American Restaurant",
   "maintype": "Food"
 },
 {
   "idx": 8527,
   "county": "POLK County, North Carolina",
   "countylat": 35.2793,
   "countylng": -82.1697,
   "name": "The Farm House Restaurant",
   "lat": 35.25421906,
   "lng": -82.19534302,
   "vmaintype": "American Restaurant",
   "maintype": "Food"
 },
 {
   "idx": 8539,
   "county": "POLK County, North Carolina",
   "countylat": 35.2793,
   "countylng": -82.1697,
   "name": "The Rural Seed Restaurant",
   "lat": 35.254344,
   "lng": -82.195567,
   "vmaintype": "American Restaurant",
   "maintype": "Food"
 },
 {
   "idx": 8544,
   "county": "POLK County, North Carolina",
   "countylat": 35.2793,
   "countylng": -82.1697,
   "name": "Calvert's Kitchen",
   "lat": 35.25308843,
   "lng": -82.19731,
   "vmaintype": "American Restaurant",
   "maintype": "Food"
 },
 {
   "idx": 8683,
   "county": "WARREN County, North Carolina",
   "countylat": 36.3965,
   "countylng": -78.1067,
   "name": "Newt's Grill",
   "lat": 36.40877724,
   "lng": -78.15614157,
   "vmaintype": "American Restaurant",
   "maintype": "Food"
 },
 {
   "idx": 8714,
   "county": "WARREN County, North Carolina",
   "countylat": 36.3965,
   "countylng": -78.1067,
   "name": "Whistle Stop Cafe",
   "lat": 36.446134,
   "lng": -78.1940615,
   "vmaintype": "American Restaurant",
   "maintype": "Food"
 },
 {
   "idx": 8812,
   "county": "BERTIE County, North Carolina",
   "countylat": 36.0662,
   "countylng": -76.9787,
   "name": "The Town House",
   "lat": 36.00300704,
   "lng": -76.96094513,
   "vmaintype": "American Restaurant",
   "maintype": "Food"
 },
 {
   "idx": 8829,
   "county": "BERTIE County, North Carolina",
   "countylat": 36.0662,
   "countylng": -76.9787,
   "name": "Little Golden Skilled",
   "lat": 35.99773063,
   "lng": -76.94872403,
   "vmaintype": "American Restaurant",
   "maintype": "Food"
 },
 {
   "idx": 8918,
   "county": "YANCEY County, North Carolina",
   "countylat": 35.8989,
   "countylng": -82.3076,
   "name": "Historic Hensley House",
   "lat": 35.9162074,
   "lng": -82.30358855,
   "vmaintype": "American Restaurant",
   "maintype": "Food"
 },
 {
   "idx": 8940,
   "county": "YANCEY County, North Carolina",
   "countylat": 35.8989,
   "countylng": -82.3076,
   "name": "SNAPDRAGON",
   "lat": 35.91755121,
   "lng": -82.29924132,
   "vmaintype": "American Restaurant",
   "maintype": "Food"
 },
 {
   "idx": 9045,
   "county": "AVERY County, North Carolina",
   "countylat": 36.0765,
   "countylng": -81.9226,
   "name": "Country Kitchen",
   "lat": 36.05535667,
   "lng": -81.91674217,
   "vmaintype": "American Restaurant",
   "maintype": "Food"
 },
 {
   "idx": 9063,
   "county": "AVERY County, North Carolina",
   "countylat": 36.0765,
   "countylng": -81.9226,
   "name": "The Patio Grill At Linville Land Harbor",
   "lat": 36.04174042,
   "lng": -81.90222168,
   "vmaintype": "American Restaurant",
   "maintype": "Food"
 },
 {
   "idx": 9482,
   "county": "PERQUIMANS County, North Carolina",
   "countylat": 36.2058,
   "countylng": -76.4411,
   "name": "252 Grill",
   "lat": 36.179052,
   "lng": -76.463388,
   "vmaintype": "American Restaurant",
   "maintype": "Food"
 },
 {
   "idx": 9654,
   "county": "GATES County, North Carolina",
   "countylat": 36.4449,
   "countylng": -76.7005,
   "name": "Baron's Grill",
   "lat": 36.40892255,
   "lng": -76.75849221,
   "vmaintype": "American Restaurant",
   "maintype": "Food"
 },
 {
   "idx": 9690,
   "county": "ALLEGHANY County, North Carolina",
   "countylat": 36.4913,
   "countylng": -81.1279,
   "name": "jerg's patio",
   "lat": 36.50008011,
   "lng": -81.11071014,
   "vmaintype": "American Restaurant",
   "maintype": "Food"
 },
 {
   "idx": 9759,
   "county": "ALLEGHANY County, North Carolina",
   "countylat": 36.4913,
   "countylng": -81.1279,
   "name": "Country Kitchen",
   "lat": 36.500788,
   "lng": -81.113772,
   "vmaintype": "American Restaurant",
   "maintype": "Food"
 },
 {
   "idx": 9760,
   "county": "ALLEGHANY County, North Carolina",
   "countylat": 36.4913,
   "countylng": -81.1279,
   "name": "KFC",
   "lat": 36.49789047,
   "lng": -81.10958862,
   "vmaintype": "American Restaurant",
   "maintype": "Food"
 },
 {
   "idx": 9767,
   "county": "ALLEGHANY County, North Carolina",
   "countylat": 36.4913,
   "countylng": -81.1279,
   "name": "Crave",
   "lat": 36.49798,
   "lng": -81.10944,
   "vmaintype": "American Restaurant",
   "maintype": "Food"
 },
 {
   "idx": 9773,
   "county": "ALLEGHANY County, North Carolina",
   "countylat": 36.4913,
   "countylng": -81.1279,
   "name": "The Pines Resturant",
   "lat": 36.50976944,
   "lng": -81.1293869,
   "vmaintype": "American Restaurant",
   "maintype": "Food"
 },
 {
   "idx": 9774,
   "county": "ALLEGHANY County, North Carolina",
   "countylat": 36.4913,
   "countylng": -81.1279,
   "name": "21 Tavern",
   "lat": 36.501247,
   "lng": -81.1121,
   "vmaintype": "American Restaurant",
   "maintype": "Food"
 },
 {
   "idx": 9775,
   "county": "ALLEGHANY County, North Carolina",
   "countylat": 36.4913,
   "countylng": -81.1279,
   "name": "The Mustard Seed Cafe",
   "lat": 36.50485306,
   "lng": -81.12047752,
   "vmaintype": "American Restaurant",
   "maintype": "Food"
 },
 {
   "idx": 9872,
   "county": "CLAY County, North Carolina",
   "countylat": 35.0572,
   "countylng": -83.7502,
   "name": "The Ugly Dog",
   "lat": 35.091795,
   "lng": -83.698143,
   "vmaintype": "American Restaurant",
   "maintype": "Food"
 },
 {
   "idx": 9890,
   "county": "CLAY County, North Carolina",
   "countylat": 35.0572,
   "countylng": -83.7502,
   "name": "Flip Side",
   "lat": 35.090589,
   "lng": -83.712007,
   "vmaintype": "American Restaurant",
   "maintype": "Food"
 },
 {
   "idx": 10047,
   "county": "JONES County, North Carolina",
   "countylat": 35.0217,
   "countylng": -77.3552,
   "name": "Country Kitchen",
   "lat": 35.06416702,
   "lng": -77.35460663,
   "vmaintype": "American Restaurant",
   "maintype": "Food"
 },
 {
   "idx": 10075,
   "county": "GRAHAM County, North Carolina",
   "countylat": 35.3502,
   "countylng": -83.8335,
   "name": "The Hub",
   "lat": 35.32894874,
   "lng": -83.80749305,
   "vmaintype": "American Restaurant",
   "maintype": "Food"
 },
 {
   "idx": 10170,
   "county": "HYDE County, North Carolina",
   "countylat": 35.5305,
   "countylng": -76.2508,
   "name": "Lone Gose Steak House",
   "lat": 35.53549231,
   "lng": -76.22256087,
   "vmaintype": "American Restaurant",
   "maintype": "Food"
 },
 {
   "idx": 10218,
   "county": "TYRRELL County, North Carolina",
   "countylat": 35.8172,
   "countylng": -76.209,
   "name": "Bob's Grill",
   "lat": 35.83060706,
   "lng": -76.29425407,
   "vmaintype": "American Restaurant",
   "maintype": "Food"
 },
 {
   "idx": 10219,
   "county": "TYRRELL County, North Carolina",
   "countylat": 35.8172,
   "countylng": -76.209,
   "name": "Flemz",
   "lat": 35.923603,
   "lng": -76.24751,
   "vmaintype": "American Restaurant",
   "maintype": "Food"
 },
 {
   "idx": 1376,
   "county": "PITT County, North Carolina",
   "countylat": 35.5933,
   "countylng": -77.3745,
   "name": "The Marley Fund",
   "lat": 35.591051,
   "lng": -77.379173,
   "vmaintype": "Animal Shelter",
   "maintype": "Pets"
 },
 {
   "idx": 2214,
   "county": "ROBESON County, North Carolina",
   "countylat": 34.6402,
   "countylng": -79.1039,
   "name": "Robenson County Humane Society",
   "lat": 34.62129,
   "lng": -79.054855,
   "vmaintype": "Animal Shelter",
   "maintype": "Pets"
 },
 {
   "idx": 2421,
   "county": "BRUNSWICK County, North Carolina",
   "countylat": 34.071,
   "countylng": -78.2377,
   "name": "Brunswick Animal Services",
   "lat": 34.01728173,
   "lng": -78.28035717,
   "vmaintype": "Animal Shelter",
   "maintype": "Pets"
 },
 {
   "idx": 2445,
   "county": "BRUNSWICK County, North Carolina",
   "countylat": 34.071,
   "countylng": -78.2377,
   "name": "Brunswick County Humane Society",
   "lat": 34.03038242,
   "lng": -78.2806074,
   "vmaintype": "Animal Shelter",
   "maintype": "Pets"
 },
 {
   "idx": 3152,
   "county": "ROCKINGHAM County, North Carolina",
   "countylat": 36.396,
   "countylng": -79.775,
   "name": "Rockingham County Animal Shelter",
   "lat": 36.39446618,
   "lng": -79.75085009,
   "vmaintype": "Animal Shelter",
   "maintype": "Pets"
 },
 {
   "idx": 3690,
   "county": "SURRY County, North Carolina",
   "countylat": 36.4148,
   "countylng": -80.6881,
   "name": "Surry County animal shelter",
   "lat": 36.4203,
   "lng": -80.714135,
   "vmaintype": "Animal Shelter",
   "maintype": "Pets"
 },
 {
   "idx": 5407,
   "county": "HOKE County, North Carolina",
   "countylat": 35.0175,
   "countylng": -79.2373,
   "name": "Hoke County Animal Control",
   "lat": 34.99116235,
   "lng": -79.21240892,
   "vmaintype": "Animal Shelter",
   "maintype": "Pets"
 },
 {
   "idx": 7052,
   "county": "MACON County, North Carolina",
   "countylat": 35.1505,
   "countylng": -83.4221,
   "name": "Paulas Pet Paradise",
   "lat": 35.16575,
   "lng": -83.435022,
   "vmaintype": "Animal Shelter",
   "maintype": "Pets"
 },
 {
   "idx": 7053,
   "county": "MACON County, North Carolina",
   "countylat": 35.1505,
   "countylng": -83.4221,
   "name": "Lorenzo Vet",
   "lat": 35.14903,
   "lng": -83.394106,
   "vmaintype": "Animal Shelter",
   "maintype": "Pets"
 },
 {
   "idx": 7741,
   "county": "CURRITUCK County, North Carolina",
   "countylat": 36.4031,
   "countylng": -76.0059,
   "name": "Animal Lovers Assistance League",
   "lat": 36.395553,
   "lng": -76.017241,
   "vmaintype": "Animal Shelter",
   "maintype": "Pets"
 },
 {
   "idx": 7956,
   "county": "HERTFORD County, North Carolina",
   "countylat": 36.3591,
   "countylng": -76.982,
   "name": "Paws of Hertford County",
   "lat": 36.39033486,
   "lng": -76.97560072,
   "vmaintype": "Animal Shelter",
   "maintype": "Pets"
 },
 {
   "idx": 8640,
   "county": "WARREN County, North Carolina",
   "countylat": 36.3965,
   "countylng": -78.1067,
   "name": "Warren county Animal Ark",
   "lat": 36.39286041,
   "lng": -78.13607025,
   "vmaintype": "Animal Shelter",
   "maintype": "Pets"
 },
 {
   "idx": 321,
   "county": "GUILFORD County, North Carolina",
   "countylat": 36.0795,
   "countylng": -79.7889,
   "name": "Blvd.",
   "lat": 36.076675,
   "lng": -79.789345,
   "vmaintype": "Antique Shop",
   "maintype": "General"
 },
 {
   "idx": 571,
   "county": "DURHAM County, North Carolina",
   "countylat": 36.036,
   "countylng": -78.8766,
   "name": "Clayton Sewing Machine Repair",
   "lat": 36.0283146,
   "lng": -78.88980324,
   "vmaintype": "Antique Shop",
   "maintype": "General"
 },
 {
   "idx": 1033,
   "county": "GASTON County, North Carolina",
   "countylat": 35.2944,
   "countylng": -81.1803,
   "name": "dooty Bin, Forth Bay",
   "lat": 35.30189767,
   "lng": -81.18570632,
   "vmaintype": "Antique Shop",
   "maintype": "General"
 },
 {
   "idx": 1111,
   "county": "CABARRUS County, North Carolina",
   "countylat": 35.3868,
   "countylng": -80.5519,
   "name": "Industrial Age Antiques",
   "lat": 35.386513,
   "lng": -80.563896,
   "vmaintype": "Antique Shop",
   "maintype": "General"
 },
 {
   "idx": 1117,
   "county": "CABARRUS County, North Carolina",
   "countylat": 35.3868,
   "countylng": -80.5519,
   "name": "Rooms Remembered",
   "lat": 35.37492752,
   "lng": -80.55111694,
   "vmaintype": "Antique Shop",
   "maintype": "General"
 },
 {
   "idx": 1163,
   "county": "JOHNSTON County, North Carolina",
   "countylat": 35.5178,
   "countylng": -78.3657,
   "name": "Gayle's Old And New",
   "lat": 35.51264,
   "lng": -78.345437,
   "vmaintype": "Antique Shop",
   "maintype": "General"
 },
 {
   "idx": 1759,
   "county": "ALAMANCE County, North Carolina",
   "countylat": 36.0437,
   "countylng": -79.3994,
   "name": "the usa picker",
   "lat": 36.03774694,
   "lng": -79.39286675,
   "vmaintype": "Antique Shop",
   "maintype": "General"
 },
 {
   "idx": 1865,
   "county": "CATAWBA County, North Carolina",
   "countylat": 35.662,
   "countylng": -81.2151,
   "name": "Picket Fence Antiques",
   "lat": 35.663632,
   "lng": -81.220797,
   "vmaintype": "Antique Shop",
   "maintype": "General"
 },
 {
   "idx": 1992,
   "county": "RANDOLPH County, North Carolina",
   "countylat": 35.7103,
   "countylng": -79.806,
   "name": "Christians United Outreach Center",
   "lat": 35.70443078,
   "lng": -79.8072503,
   "vmaintype": "Antique Shop",
   "maintype": "General"
 },
 {
   "idx": 2459,
   "county": "BRUNSWICK County, North Carolina",
   "countylat": 34.071,
   "countylng": -78.2377,
   "name": "Olde Church Antiques",
   "lat": 34.0171231,
   "lng": -78.27282798,
   "vmaintype": "Antique Shop",
   "maintype": "General"
 },
 {
   "idx": 3810,
   "county": "CHATHAM County, North Carolina",
   "countylat": 35.7026,
   "countylng": -79.2553,
   "name": "Hickory Mountain Antique & Country Store",
   "lat": 35.721142,
   "lng": -79.177443,
   "vmaintype": "Antique Shop",
   "maintype": "General"
 },
 {
   "idx": 3843,
   "county": "CHATHAM County, North Carolina",
   "countylat": 35.7026,
   "countylng": -79.2553,
   "name": "Paynes Glass",
   "lat": 35.73432986,
   "lng": -79.29868059,
   "vmaintype": "Antique Shop",
   "maintype": "General"
 },
 {
   "idx": 4220,
   "county": "FRANKLIN County, North Carolina",
   "countylat": 36.0828,
   "countylng": -78.2857,
   "name": "The Annex",
   "lat": 36.098428,
   "lng": -78.299499,
   "vmaintype": "Antique Shop",
   "maintype": "General"
 },
 {
   "idx": 4449,
   "county": "STANLY County, North Carolina",
   "countylat": 35.312,
   "countylng": -80.251,
   "name": "Restore Staly Co",
   "lat": 35.339337,
   "lng": -80.208746,
   "vmaintype": "Antique Shop",
   "maintype": "General"
 },
 {
   "idx": 4630,
   "county": "LEE County, North Carolina",
   "countylat": 35.4752,
   "countylng": -79.1715,
   "name": "A Few Nice Things",
   "lat": 35.480587,
   "lng": -79.178689,
   "vmaintype": "Antique Shop",
   "maintype": "General"
 },
 {
   "idx": 4640,
   "county": "LEE County, North Carolina",
   "countylat": 35.4752,
   "countylng": -79.1715,
   "name": "Toaddally Terrific Finds",
   "lat": 35.47861,
   "lng": -79.17738,
   "vmaintype": "Antique Shop",
   "maintype": "General"
 },
 {
   "idx": 4655,
   "county": "LEE County, North Carolina",
   "countylat": 35.4752,
   "countylng": -79.1715,
   "name": "Vintage Warehouse",
   "lat": 35.480489,
   "lng": -79.174104,
   "vmaintype": "Antique Shop",
   "maintype": "General"
 },
 {
   "idx": 4732,
   "county": "LEE County, North Carolina",
   "countylat": 35.4752,
   "countylng": -79.1715,
   "name": "Steel Wicker Street Galery",
   "lat": 35.479597,
   "lng": -79.177596,
   "vmaintype": "Antique Shop",
   "maintype": "General"
 },
 {
   "idx": 4825,
   "county": "PENDER County, North Carolina",
   "countylat": 34.5248,
   "countylng": -77.9051,
   "name": "Burgaw Antique Place",
   "lat": 34.55099869,
   "lng": -77.92672729,
   "vmaintype": "Antique Shop",
   "maintype": "General"
 },
 {
   "idx": 5737,
   "county": "BEAUFORT County, North Carolina",
   "countylat": 35.494,
   "countylng": -76.8598,
   "name": "Oden's Antiques",
   "lat": 35.52370071,
   "lng": -76.80708313,
   "vmaintype": "Antique Shop",
   "maintype": "General"
 },
 {
   "idx": 6690,
   "county": "PERSON County, North Carolina",
   "countylat": 36.39,
   "countylng": -78.9718,
   "name": "Yesteryear",
   "lat": 36.392857,
   "lng": -78.98397,
   "vmaintype": "Antique Shop",
   "maintype": "General"
 },
 {
   "idx": 6744,
   "county": "YADKIN County, North Carolina",
   "countylat": 36.1605,
   "countylng": -80.6652,
   "name": "Miss Emilys",
   "lat": 36.13452542,
   "lng": -80.6588191,
   "vmaintype": "Antique Shop",
   "maintype": "General"
 },
 {
   "idx": 6841,
   "county": "ALEXANDER County, North Carolina",
   "countylat": 35.921,
   "countylng": -81.177,
   "name": "Antique And Pawns",
   "lat": 35.922735,
   "lng": -81.176794,
   "vmaintype": "Antique Shop",
   "maintype": "General"
 },
 {
   "idx": 6891,
   "county": "ALEXANDER County, North Carolina",
   "countylat": 35.921,
   "countylng": -81.177,
   "name": "treasure cove",
   "lat": 35.92170353,
   "lng": -81.18031843,
   "vmaintype": "Antique Shop",
   "maintype": "General"
 },
 {
   "idx": 6894,
   "county": "ALEXANDER County, North Carolina",
   "countylat": 35.921,
   "countylng": -81.177,
   "name": "West Main Antique",
   "lat": 35.92229,
   "lng": -81.180707,
   "vmaintype": "Antique Shop",
   "maintype": "General"
 },
 {
   "idx": 7111,
   "county": "MACON County, North Carolina",
   "countylat": 35.1505,
   "countylng": -83.4221,
   "name": "Boatwright Auction",
   "lat": 35.159022,
   "lng": -83.423629,
   "vmaintype": "Antique Shop",
   "maintype": "General"
 },
 {
   "idx": 7536,
   "county": "MONTGOMERY County, North Carolina",
   "countylat": 35.3325,
   "countylng": -79.9055,
   "name": "tony treece auction",
   "lat": 35.36274338,
   "lng": -79.8947525,
   "vmaintype": "Antique Shop",
   "maintype": "General"
 },
 {
   "idx": 7666,
   "county": "ASHE County, North Carolina",
   "countylat": 36.4345,
   "countylng": -81.5005,
   "name": "Midtown Antique Mall",
   "lat": 36.41155,
   "lng": -81.481328,
   "vmaintype": "Antique Shop",
   "maintype": "General"
 },
 {
   "idx": 8184,
   "county": "CASWELL County, North Carolina",
   "countylat": 36.3932,
   "countylng": -79.3335,
   "name": "Winstead's Auction House",
   "lat": 36.4038887,
   "lng": -79.337677,
   "vmaintype": "Antique Shop",
   "maintype": "General"
 },
 {
   "idx": 8216,
   "county": "CASWELL County, North Carolina",
   "countylat": 36.3932,
   "countylng": -79.3335,
   "name": "WINSTEAD'S AUCTION CO. INC.",
   "lat": 36.404118,
   "lng": -79.338517,
   "vmaintype": "Antique Shop",
   "maintype": "General"
 },
 {
   "idx": 8577,
   "county": "NORTHAMPTON County, North Carolina",
   "countylat": 36.4178,
   "countylng": -77.3969,
   "name": "Simply unique",
   "lat": 36.389515,
   "lng": -77.421105,
   "vmaintype": "Antique Shop",
   "maintype": "General"
 },
 {
   "idx": 8658,
   "county": "WARREN County, North Carolina",
   "countylat": 36.3965,
   "countylng": -78.1067,
   "name": "The Pack House Antiques",
   "lat": 36.43705498,
   "lng": -78.14323447,
   "vmaintype": "Antique Shop",
   "maintype": "General"
 },
 {
   "idx": 8665,
   "county": "WARREN County, North Carolina",
   "countylat": 36.3965,
   "countylng": -78.1067,
   "name": "Roost Crossroad Antiques And Collections mall",
   "lat": 36.43541145,
   "lng": -78.18276934,
   "vmaintype": "Antique Shop",
   "maintype": "General"
 },
 {
   "idx": 8666,
   "county": "WARREN County, North Carolina",
   "countylat": 36.3965,
   "countylng": -78.1067,
   "name": "Oakley Hall Antiques & Art, Inc.",
   "lat": 36.39923859,
   "lng": -78.15507507,
   "vmaintype": "Antique Shop",
   "maintype": "General"
 },
 {
   "idx": 8773,
   "county": "BERTIE County, North Carolina",
   "countylat": 36.0662,
   "countylng": -76.9787,
   "name": "Treasure Island",
   "lat": 36.00010044,
   "lng": -76.95399609,
   "vmaintype": "Antique Shop",
   "maintype": "General"
 },
 {
   "idx": 8865,
   "county": "YANCEY County, North Carolina",
   "countylat": 35.8989,
   "countylng": -82.3076,
   "name": "Hammond Antiques",
   "lat": 35.915356,
   "lng": -82.30513,
   "vmaintype": "Antique Shop",
   "maintype": "General"
 },
 {
   "idx": 9101,
   "county": "MITCHELL County, North Carolina",
   "countylat": 36.0133,
   "countylng": -82.1636,
   "name": "antiques",
   "lat": 36.01507568,
   "lng": -82.1581955,
   "vmaintype": "Antique Shop",
   "maintype": "General"
 },
 {
   "idx": 9441,
   "county": "PERQUIMANS County, North Carolina",
   "countylat": 36.2058,
   "countylng": -76.4411,
   "name": "Hertfordshire Antiques",
   "lat": 36.189677,
   "lng": -76.465629,
   "vmaintype": "Antique Shop",
   "maintype": "General"
 },
 {
   "idx": 9446,
   "county": "PERQUIMANS County, North Carolina",
   "countylat": 36.2058,
   "countylng": -76.4411,
   "name": "Country Flair",
   "lat": 36.21298677,
   "lng": -76.43379969,
   "vmaintype": "Antique Shop",
   "maintype": "General"
 },
 {
   "idx": 9728,
   "county": "ALLEGHANY County, North Carolina",
   "countylat": 36.4913,
   "countylng": -81.1279,
   "name": "Allen's Auction",
   "lat": 36.504877,
   "lng": -81.120118,
   "vmaintype": "Antique Shop",
   "maintype": "General"
 },
 {
   "idx": 9735,
   "county": "ALLEGHANY County, North Carolina",
   "countylat": 36.4913,
   "countylng": -81.1279,
   "name": "Lark's Nest",
   "lat": 36.483795,
   "lng": -81.122841,
   "vmaintype": "Antique Shop",
   "maintype": "General"
 },
 {
   "idx": 9807,
   "county": "CLAY County, North Carolina",
   "countylat": 35.0572,
   "countylng": -83.7502,
   "name": "Clay County Builder Supply",
   "lat": 35.04587199,
   "lng": -83.81742443,
   "vmaintype": "Antique Shop",
   "maintype": "General"
 },
 {
   "idx": 10184,
   "county": "TYRRELL County, North Carolina",
   "countylat": 35.8172,
   "countylng": -76.209,
   "name": "Maggie Duke Antiques",
   "lat": 35.917731,
   "lng": -76.253385,
   "vmaintype": "Antique Shop",
   "maintype": "General"
 },
 {
   "idx": 405,
   "county": "FORSYTH County, North Carolina",
   "countylat": 36.1306,
   "countylng": -80.2563,
   "name": "arcade auction",
   "lat": 36.127052,
   "lng": -80.253963,
   "vmaintype": "Arcade",
   "maintype": "General"
 },
 {
   "idx": 1552,
   "county": "IREDELL County, North Carolina",
   "countylat": 35.807,
   "countylng": -80.8734,
   "name": "grocery doors",
   "lat": 35.81056571,
   "lng": -80.86982247,
   "vmaintype": "Arcade",
   "maintype": "General"
 },
 {
   "idx": 1659,
   "county": "DAVIDSON County, North Carolina",
   "countylat": 35.7934,
   "countylng": -80.2127,
   "name": "Klim bonus room",
   "lat": 35.779128,
   "lng": -80.2118,
   "vmaintype": "Arcade",
   "maintype": "General"
 },
 {
   "idx": 1767,
   "county": "ALAMANCE County, North Carolina",
   "countylat": 36.0437,
   "countylng": -79.3994,
   "name": "Royal Flush Sweepstakes",
   "lat": 36.052582,
   "lng": -79.400749,
   "vmaintype": "Arcade",
   "maintype": "General"
 },
 {
   "idx": 3405,
   "county": "LINCOLN County, North Carolina",
   "countylat": 35.4856,
   "countylng": -81.2235,
   "name": "Ferelden",
   "lat": 35.477073,
   "lng": -81.232648,
   "vmaintype": "Arcade",
   "maintype": "General"
 },
 {
   "idx": 3426,
   "county": "LINCOLN County, North Carolina",
   "countylat": 35.4856,
   "countylng": -81.2235,
   "name": "The John",
   "lat": 35.4779068,
   "lng": -81.23532997,
   "vmaintype": "Arcade",
   "maintype": "General"
 },
 {
   "idx": 3510,
   "county": "CALDWELL County, North Carolina",
   "countylat": 35.953,
   "countylng": -81.5464,
   "name": "321 Game Room",
   "lat": 35.96203764,
   "lng": -81.55275184,
   "vmaintype": "Arcade",
   "maintype": "General"
 },
 {
   "idx": 5756,
   "county": "BEAUFORT County, North Carolina",
   "countylat": 35.494,
   "countylng": -76.8598,
   "name": "Gaming Zone",
   "lat": 35.496983,
   "lng": -76.979728,
   "vmaintype": "Arcade",
   "maintype": "General"
 },
 {
   "idx": 6457,
   "county": "DAVIE County, North Carolina",
   "countylat": 35.9291,
   "countylng": -80.5445,
   "name": "Xbox Time",
   "lat": 35.94304028,
   "lng": -80.56046495,
   "vmaintype": "Arcade",
   "maintype": "General"
 },
 {
   "idx": 8193,
   "county": "CASWELL County, North Carolina",
   "countylat": 36.3932,
   "countylng": -79.3335,
   "name": "the caswell bounce house",
   "lat": 36.42005414,
   "lng": -79.35120075,
   "vmaintype": "Arcade",
   "maintype": "General"
 },
 {
   "idx": 9129,
   "county": "MITCHELL County, North Carolina",
   "countylat": 36.0133,
   "countylng": -82.1636,
   "name": "PS3",
   "lat": 36.0347248,
   "lng": -82.131008,
   "vmaintype": "Arcade",
   "maintype": "General"
 },
 {
   "idx": 9478,
   "county": "PERQUIMANS County, North Carolina",
   "countylat": 36.2058,
   "countylng": -76.4411,
   "name": "Perquimans County Restoration Association Newbold-White House Historic Site",
   "lat": 36.165984,
   "lng": -76.441602,
   "vmaintype": "Arcade",
   "maintype": "General"
 },
 {
   "idx": 27,
   "county": "MECKLENBURG County, North Carolina",
   "countylat": 35.2467,
   "countylng": -80.8328,
   "name": "Felix's Handmade Empanadas",
   "lat": 35.24532556,
   "lng": -80.82418174,
   "vmaintype": "Argentinian Restaurant",
   "maintype": "Food"
 },
 {
   "idx": 173,
   "county": "WAKE County, North Carolina",
   "countylat": 35.7903,
   "countylng": -78.6503,
   "name": "Rush's Den",
   "lat": 35.7907137,
   "lng": -78.65245927,
   "vmaintype": "Art Gallery",
   "maintype": "Art"
 },
 {
   "idx": 176,
   "county": "WAKE County, North Carolina",
   "countylat": 35.7903,
   "countylng": -78.6503,
   "name": "Crush's Corner",
   "lat": 35.790752,
   "lng": -78.652467,
   "vmaintype": "Art Gallery",
   "maintype": "Art"
 },
 {
   "idx": 192,
   "county": "WAKE County, North Carolina",
   "countylat": 35.7903,
   "countylng": -78.6503,
   "name": "Cable' Frame House",
   "lat": 35.791172,
   "lng": -78.65166,
   "vmaintype": "Art Gallery",
   "maintype": "Art"
 },
 {
   "idx": 561,
   "county": "DURHAM County, North Carolina",
   "countylat": 36.036,
   "countylng": -78.8766,
   "name": "Leigh Ann Hines Photography",
   "lat": 36.047542,
   "lng": -78.87314349,
   "vmaintype": "Art Gallery",
   "maintype": "Art"
 },
 {
   "idx": 870,
   "county": "NEW HANOVER County, North Carolina",
   "countylat": 34.2328,
   "countylng": -77.8847,
   "name": "White Oak Movie Theatre",
   "lat": 34.23479184,
   "lng": -77.8845777,
   "vmaintype": "Art Gallery",
   "maintype": "Art"
 },
 {
   "idx": 1109,
   "county": "CABARRUS County, North Carolina",
   "countylat": 35.3868,
   "countylng": -80.5519,
   "name": "CaddyPaddy",
   "lat": 35.37620287,
   "lng": -80.551541,
   "vmaintype": "Art Gallery",
   "maintype": "Art"
 },
 {
   "idx": 1651,
   "county": "DAVIDSON County, North Carolina",
   "countylat": 35.7934,
   "countylng": -80.2127,
   "name": "Bob Timberlake Gallery",
   "lat": 35.799812,
   "lng": -80.221137,
   "vmaintype": "Art Gallery",
   "maintype": "Art"
 },
 {
   "idx": 1876,
   "county": "CATAWBA County, North Carolina",
   "countylat": 35.662,
   "countylng": -81.2151,
   "name": "Red Leaf Artist Collective",
   "lat": 35.663704,
   "lng": -81.221697,
   "vmaintype": "Art Gallery",
   "maintype": "Art"
 },
 {
   "idx": 2040,
   "county": "RANDOLPH County, North Carolina",
   "countylat": 35.7103,
   "countylng": -79.806,
   "name": "Brightside Gallery",
   "lat": 35.70565942,
   "lng": -79.8121836,
   "vmaintype": "Art Gallery",
   "maintype": "Art"
 },
 {
   "idx": 2043,
   "county": "RANDOLPH County, North Carolina",
   "countylat": 35.7103,
   "countylng": -79.806,
   "name": "Betsy Browne Pottery",
   "lat": 35.70708847,
   "lng": -79.81426239,
   "vmaintype": "Art Gallery",
   "maintype": "Art"
 },
 {
   "idx": 2046,
   "county": "RANDOLPH County, North Carolina",
   "countylat": 35.7103,
   "countylng": -79.806,
   "name": "Colorshow Gallery",
   "lat": 35.70725924,
   "lng": -79.81418098,
   "vmaintype": "Art Gallery",
   "maintype": "Art"
 },
 {
   "idx": 2644,
   "county": "HENDERSON County, North Carolina",
   "countylat": 35.3363,
   "countylng": -82.48,
   "name": "Susan Webb Tregay",
   "lat": 35.33827591,
   "lng": -82.48246002,
   "vmaintype": "Art Gallery",
   "maintype": "Art"
 },
 {
   "idx": 2646,
   "county": "HENDERSON County, North Carolina",
   "countylat": 35.3363,
   "countylng": -82.48,
   "name": "Pure Grit Photography",
   "lat": 35.33486873,
   "lng": -82.47176155,
   "vmaintype": "Art Gallery",
   "maintype": "Art"
 },
 {
   "idx": 3112,
   "county": "NASH County, North Carolina",
   "countylat": 35.9673,
   "countylng": -77.9864,
   "name": "Nash Arts Center",
   "lat": 35.975022,
   "lng": -77.965256,
   "vmaintype": "Art Gallery",
   "maintype": "Art"
 },
 {
   "idx": 3279,
   "county": "BURKE County, North Carolina",
   "countylat": 35.7496,
   "countylng": -81.7048,
   "name": "Ms. Jones' Art Class",
   "lat": 35.74606705,
   "lng": -81.69288635,
   "vmaintype": "Art Gallery",
   "maintype": "Art"
 },
 {
   "idx": 3820,
   "county": "CHATHAM County, North Carolina",
   "countylat": 35.7026,
   "countylng": -79.2553,
   "name": "Oddco",
   "lat": 35.721145,
   "lng": -79.189543,
   "vmaintype": "Art Gallery",
   "maintype": "Art"
 },
 {
   "idx": 3936,
   "county": "CARTERET County, North Carolina",
   "countylat": 34.8357,
   "countylng": -76.6589,
   "name": "The Crafty Attic",
   "lat": 34.735077,
   "lng": -76.8094,
   "vmaintype": "Art Gallery",
   "maintype": "Art"
 },
 {
   "idx": 4456,
   "county": "STANLY County, North Carolina",
   "countylat": 35.312,
   "countylng": -80.251,
   "name": "The Galleria",
   "lat": 35.338089,
   "lng": -80.203238,
   "vmaintype": "Art Gallery",
   "maintype": "Art"
 },
 {
   "idx": 5353,
   "county": "WATAUGA County, North Carolina",
   "countylat": 36.2311,
   "countylng": -81.6964,
   "name": "High Country Glass",
   "lat": 36.219485,
   "lng": -81.684934,
   "vmaintype": "Art Gallery",
   "maintype": "Art"
 },
 {
   "idx": 5628,
   "county": "HALIFAX County, North Carolina",
   "countylat": 36.2575,
   "countylng": -77.6517,
   "name": "The Lodge At Enfield",
   "lat": 36.180299,
   "lng": -77.666729,
   "vmaintype": "Art Gallery",
   "maintype": "Art"
 },
 {
   "idx": 6057,
   "county": "RICHMOND County, North Carolina",
   "countylat": 35.0059,
   "countylng": -79.7478,
   "name": "School For The Art of Faux Bois",
   "lat": 35.03348574,
   "lng": -79.76906734,
   "vmaintype": "Art Gallery",
   "maintype": "Art"
 },
 {
   "idx": 6696,
   "county": "YADKIN County, North Carolina",
   "countylat": 36.1605,
   "countylng": -80.6652,
   "name": "Moose lodge yadkinville",
   "lat": 36.16547,
   "lng": -80.66232,
   "vmaintype": "Art Gallery",
   "maintype": "Art"
 },
 {
   "idx": 7412,
   "county": "CHEROKEE County, North Carolina",
   "countylat": 35.1339,
   "countylng": -84.0635,
   "name": "Celebrate Life Gallery",
   "lat": 35.088209,
   "lng": -84.033865,
   "vmaintype": "Art Gallery",
   "maintype": "Art"
 },
 {
   "idx": 7419,
   "county": "CHEROKEE County, North Carolina",
   "countylat": 35.1339,
   "countylng": -84.0635,
   "name": "Artists Common Gallery",
   "lat": 35.088787,
   "lng": -84.03531,
   "vmaintype": "Art Gallery",
   "maintype": "Art"
 },
 {
   "idx": 7549,
   "county": "MONTGOMERY County, North Carolina",
   "countylat": 35.3325,
   "countylng": -79.9055,
   "name": "ARTifex",
   "lat": 35.362383,
   "lng": -79.895009,
   "vmaintype": "Art Gallery",
   "maintype": "Art"
 },
 {
   "idx": 7639,
   "county": "ASHE County, North Carolina",
   "countylat": 36.4345,
   "countylng": -81.5005,
   "name": "Broomfields Gallery",
   "lat": 36.405524,
   "lng": -81.489925,
   "vmaintype": "Art Gallery",
   "maintype": "Art"
 },
 {
   "idx": 7670,
   "county": "ASHE County, North Carolina",
   "countylat": 36.4345,
   "countylng": -81.5005,
   "name": "Catchlight Gallery",
   "lat": 36.403345,
   "lng": -81.49257,
   "vmaintype": "Art Gallery",
   "maintype": "Art"
 },
 {
   "idx": 8271,
   "county": "MADISON County, North Carolina",
   "countylat": 35.858,
   "countylng": -82.7058,
   "name": "Madison County Arts Council",
   "lat": 35.796326,
   "lng": -82.68189,
   "vmaintype": "Art Gallery",
   "maintype": "Art"
 },
 {
   "idx": 8494,
   "county": "POLK County, North Carolina",
   "countylat": 35.2793,
   "countylng": -82.1697,
   "name": "Hearts Of Clay",
   "lat": 35.25210444,
   "lng": -82.1981509,
   "vmaintype": "Art Gallery",
   "maintype": "Art"
 },
 {
   "idx": 8496,
   "county": "POLK County, North Carolina",
   "countylat": 35.2793,
   "countylng": -82.1697,
   "name": "J.T. Cooper Studio",
   "lat": 35.254711,
   "lng": -82.131655,
   "vmaintype": "Art Gallery",
   "maintype": "Art"
 },
 {
   "idx": 8837,
   "county": "YANCEY County, North Carolina",
   "countylat": 35.8989,
   "countylng": -82.3076,
   "name": "Big Red R Studio",
   "lat": 35.91535946,
   "lng": -82.29903986,
   "vmaintype": "Art Gallery",
   "maintype": "Art"
 },
 {
   "idx": 9083,
   "county": "MITCHELL County, North Carolina",
   "countylat": 36.0133,
   "countylng": -82.1636,
   "name": "Anita's Atelier",
   "lat": 36.015444,
   "lng": -82.15837,
   "vmaintype": "Art Gallery",
   "maintype": "Art"
 },
 {
   "idx": 9084,
   "county": "MITCHELL County, North Carolina",
   "countylat": 36.0133,
   "countylng": -82.1636,
   "name": "Judson Guerard Glass",
   "lat": 36.009218,
   "lng": -82.191729,
   "vmaintype": "Art Gallery",
   "maintype": "Art"
 },
 {
   "idx": 9097,
   "county": "MITCHELL County, North Carolina",
   "countylat": 36.0133,
   "countylng": -82.1636,
   "name": "Courtney Martin Pottery",
   "lat": 35.94382654,
   "lng": -82.15425622,
   "vmaintype": "Art Gallery",
   "maintype": "Art"
 },
 {
   "idx": 9103,
   "county": "MITCHELL County, North Carolina",
   "countylat": 36.0133,
   "countylng": -82.1636,
   "name": "P And R Grocery",
   "lat": 35.96442985,
   "lng": -82.11455633,
   "vmaintype": "Art Gallery",
   "maintype": "Art"
 },
 {
   "idx": 9116,
   "county": "MITCHELL County, North Carolina",
   "countylat": 36.0133,
   "countylng": -82.1636,
   "name": "Upper Textile",
   "lat": 35.94483223,
   "lng": -82.11559689,
   "vmaintype": "Art Gallery",
   "maintype": "Art"
 },
 {
   "idx": 9148,
   "county": "MITCHELL County, North Carolina",
   "countylat": 36.0133,
   "countylng": -82.1636,
   "name": "Penland Gallery",
   "lat": 35.938933,
   "lng": -82.11406698,
   "vmaintype": "Art Gallery",
   "maintype": "Art"
 },
 {
   "idx": 9335,
   "county": "CHOWAN County, North Carolina",
   "countylat": 36.1508,
   "countylng": -76.6079,
   "name": "Cork and Canvas",
   "lat": 36.142668,
   "lng": -76.698354,
   "vmaintype": "Art Gallery",
   "maintype": "Art"
 },
 {
   "idx": 9445,
   "county": "PERQUIMANS County, North Carolina",
   "countylat": 36.2058,
   "countylng": -76.4411,
   "name": "Perquimans Arts League",
   "lat": 36.18920898,
   "lng": -76.46630859,
   "vmaintype": "Art Gallery",
   "maintype": "Art"
 },
 {
   "idx": 9721,
   "county": "ALLEGHANY County, North Carolina",
   "countylat": 36.4913,
   "countylng": -81.1279,
   "name": "Studio Redwood",
   "lat": 36.505386,
   "lng": -81.120199,
   "vmaintype": "Art Gallery",
   "maintype": "Art"
 },
 {
   "idx": 9729,
   "county": "ALLEGHANY County, North Carolina",
   "countylat": 36.4913,
   "countylng": -81.1279,
   "name": "Studio Roxie",
   "lat": 36.50558306,
   "lng": -81.12289667,
   "vmaintype": "Art Gallery",
   "maintype": "Art"
 },
 {
   "idx": 9886,
   "county": "CLAY County, North Carolina",
   "countylat": 35.0572,
   "countylng": -83.7502,
   "name": "Goldhagen Studio",
   "lat": 35.027422,
   "lng": -83.774452,
   "vmaintype": "Art Gallery",
   "maintype": "Art"
 },
 {
   "idx": 10110,
   "county": "GRAHAM County, North Carolina",
   "countylat": 35.3502,
   "countylng": -83.8335,
   "name": "Smoky Beads",
   "lat": 35.32915497,
   "lng": -83.80865479,
   "vmaintype": "Art Gallery",
   "maintype": "Art"
 },
 {
   "idx": 10,
   "county": "MECKLENBURG County, North Carolina",
   "countylat": 35.2467,
   "countylng": -80.8328,
   "name": "Van Gogh Exhibit",
   "lat": 35.247558,
   "lng": -80.831687,
   "vmaintype": "Art Museum",
   "maintype": "Art"
 },
 {
   "idx": 7182,
   "county": "TRANSYLVANIA County, North Carolina",
   "countylat": 35.2021,
   "countylng": -82.7982,
   "name": "Trans. County Arts Council",
   "lat": 35.229662,
   "lng": -82.738179,
   "vmaintype": "Art Museum",
   "maintype": "Art"
 },
 {
   "idx": 815,
   "county": "UNION County, North Carolina",
   "countylat": 34.9884,
   "countylng": -80.5307,
   "name": "Salvage Shop Fabric Outlet",
   "lat": 34.985122,
   "lng": -80.534432,
   "vmaintype": "Arts & Crafts Store",
   "maintype": "Art"
 },
 {
   "idx": 1636,
   "county": "DAVIDSON County, North Carolina",
   "countylat": 35.7934,
   "countylng": -80.2127,
   "name": "Lavish Salon and Spa",
   "lat": 35.803513,
   "lng": -80.229484,
   "vmaintype": "Arts & Crafts Store",
   "maintype": "Art"
 },
 {
   "idx": 2144,
   "county": "ROWAN County, North Carolina",
   "countylat": 35.6395,
   "countylng": -80.5248,
   "name": "Rufty's Chrismons",
   "lat": 35.623415,
   "lng": -80.503614,
   "vmaintype": "Arts & Crafts Store",
   "maintype": "Art"
 },
 {
   "idx": 2457,
   "county": "BRUNSWICK County, North Carolina",
   "countylat": 34.071,
   "countylng": -78.2377,
   "name": "Carolina Pottery",
   "lat": 34.04175,
   "lng": -78.198004,
   "vmaintype": "Arts & Crafts Store",
   "maintype": "Art"
 },
 {
   "idx": 2868,
   "county": "MOORE County, North Carolina",
   "countylat": 35.3106,
   "countylng": -79.4814,
   "name": "Linda Dalton Pottery",
   "lat": 35.274348,
   "lng": -79.479192,
   "vmaintype": "Arts & Crafts Store",
   "maintype": "Art"
 },
 {
   "idx": 3874,
   "county": "CARTERET County, North Carolina",
   "countylat": 34.8357,
   "countylng": -76.6589,
   "name": "Marsh Harbor Studio",
   "lat": 34.85599518,
   "lng": -76.76744843,
   "vmaintype": "Arts & Crafts Store",
   "maintype": "Art"
 },
 {
   "idx": 4143,
   "county": "RUTHERFORD County, North Carolina",
   "countylat": 35.4026,
   "countylng": -81.9198,
   "name": "Ann's Cozy Quilts & Fabrics",
   "lat": 35.364113,
   "lng": -81.947541,
   "vmaintype": "Arts & Crafts Store",
   "maintype": "Art"
 },
 {
   "idx": 4457,
   "county": "STANLY County, North Carolina",
   "countylat": 35.312,
   "countylng": -80.251,
   "name": "Burkes Outlet",
   "lat": 35.338139,
   "lng": -80.203231,
   "vmaintype": "Arts & Crafts Store",
   "maintype": "Art"
 },
 {
   "idx": 6127,
   "county": "RICHMOND County, North Carolina",
   "countylat": 35.0059,
   "countylng": -79.7478,
   "name": "Metrools",
   "lat": 34.97247019,
   "lng": -79.78315344,
   "vmaintype": "Arts & Crafts Store",
   "maintype": "Art"
 },
 {
   "idx": 6413,
   "county": "DAVIE County, North Carolina",
   "countylat": 35.9291,
   "countylng": -80.5445,
   "name": "Ben Franklin",
   "lat": 35.91234844,
   "lng": -80.5798287,
   "vmaintype": "Arts & Crafts Store",
   "maintype": "Art"
 },
 {
   "idx": 6499,
   "county": "PASQUOTANK County, North Carolina",
   "countylat": 36.2955,
   "countylng": -76.284,
   "name": "Hobby Lobby",
   "lat": 36.2963321,
   "lng": -76.2931565,
   "vmaintype": "Arts & Crafts Store",
   "maintype": "Art"
 },
 {
   "idx": 6822,
   "county": "ALEXANDER County, North Carolina",
   "countylat": 35.921,
   "countylng": -81.177,
   "name": "The Cottage Quilt Shop",
   "lat": 35.921324,
   "lng": -81.175017,
   "vmaintype": "Arts & Crafts Store",
   "maintype": "Art"
 },
 {
   "idx": 7076,
   "county": "MACON County, North Carolina",
   "countylat": 35.1505,
   "countylng": -83.4221,
   "name": "Hodge Podge",
   "lat": 35.15735023,
   "lng": -83.39237584,
   "vmaintype": "Arts & Crafts Store",
   "maintype": "Art"
 },
 {
   "idx": 7755,
   "county": "CURRITUCK County, North Carolina",
   "countylat": 36.4031,
   "countylng": -76.0059,
   "name": "Hedgehog Woodworks",
   "lat": 36.35267209,
   "lng": -75.95858492,
   "vmaintype": "Arts & Crafts Store",
   "maintype": "Art"
 },
 {
   "idx": 8309,
   "county": "MADISON County, North Carolina",
   "countylat": 35.858,
   "countylng": -82.7058,
   "name": "Flow Gallery",
   "lat": 35.797207,
   "lng": -82.68386,
   "vmaintype": "Arts & Crafts Store",
   "maintype": "Art"
 },
 {
   "idx": 8888,
   "county": "YANCEY County, North Carolina",
   "countylat": 35.8989,
   "countylng": -82.3076,
   "name": "Yummi Yarns",
   "lat": 35.91650683,
   "lng": -82.29959653,
   "vmaintype": "Arts & Crafts Store",
   "maintype": "Art"
 },
 {
   "idx": 9374,
   "county": "CHOWAN County, North Carolina",
   "countylat": 36.1508,
   "countylng": -76.6079,
   "name": "Byrum's Gift Shop",
   "lat": 36.07360997,
   "lng": -76.6092938,
   "vmaintype": "Arts & Crafts Store",
   "maintype": "Art"
 },
 {
   "idx": 9808,
   "county": "CLAY County, North Carolina",
   "countylat": 35.0572,
   "countylng": -83.7502,
   "name": "morning song gallery",
   "lat": 35.045716,
   "lng": -83.817348,
   "vmaintype": "Arts & Crafts Store",
   "maintype": "Art"
 },
 {
   "idx": 9948,
   "county": "CAMDEN County, North Carolina",
   "countylat": 36.3877,
   "countylng": -76.2064,
   "name": "Egads Screen Printing & Embroidery",
   "lat": 36.33168784,
   "lng": -76.22529396,
   "vmaintype": "Arts & Crafts Store",
   "maintype": "Art"
 },
 {
   "idx": 1121,
   "county": "CABARRUS County, North Carolina",
   "countylat": 35.3868,
   "countylng": -80.5519,
   "name": "His Witt's End",
   "lat": 35.38644333,
   "lng": -80.54380432,
   "vmaintype": "Arts & Entertainment",
   "maintype": "Art"
 },
 {
   "idx": 4617,
   "county": "HAYWOOD County, North Carolina",
   "countylat": 35.556,
   "countylng": -82.9822,
   "name": "Iron Tree Golf Course",
   "lat": 35.5690945,
   "lng": -82.94839391,
   "vmaintype": "Arts & Entertainment",
   "maintype": "Art"
 },
 {
   "idx": 4810,
   "county": "PENDER County, North Carolina",
   "countylat": 34.5248,
   "countylng": -77.9051,
   "name": "Encore Dance Center, Inc.",
   "lat": 34.543451,
   "lng": -77.914313,
   "vmaintype": "Arts & Entertainment",
   "maintype": "Art"
 },
 {
   "idx": 5689,
   "county": "HALIFAX County, North Carolina",
   "countylat": 36.2575,
   "countylng": -77.6517,
   "name": "8 mile",
   "lat": 36.2817875,
   "lng": -77.71862997,
   "vmaintype": "Arts & Entertainment",
   "maintype": "Art"
 },
 {
   "idx": 6570,
   "county": "PASQUOTANK County, North Carolina",
   "countylat": 36.2955,
   "countylng": -76.284,
   "name": "Encore Theatre Company",
   "lat": 36.28067191,
   "lng": -76.27864313,
   "vmaintype": "Arts & Entertainment",
   "maintype": "Art"
 },
 {
   "idx": 8388,
   "county": "GREENE County, North Carolina",
   "countylat": 35.485,
   "countylng": -77.6758,
   "name": "Go Mix 89 WAGO Station",
   "lat": 35.454772,
   "lng": -77.670553,
   "vmaintype": "Arts & Entertainment",
   "maintype": "Art"
 },
 {
   "idx": 9231,
   "county": "SWAIN County, North Carolina",
   "countylat": 35.4868,
   "countylng": -83.4928,
   "name": "Swain County Center For The Arts",
   "lat": 35.4473,
   "lng": -83.456755,
   "vmaintype": "Arts & Entertainment",
   "maintype": "Art"
 },
 {
   "idx": 896,
   "county": "NEW HANOVER County, North Carolina",
   "countylat": 34.2328,
   "countylng": -77.8847,
   "name": "Hibachi Grill Supreme Buffet",
   "lat": 34.23510971,
   "lng": -77.87875121,
   "vmaintype": "Asian Restaurant",
   "maintype": "Food"
 },
 {
   "idx": 1494,
   "county": "IREDELL County, North Carolina",
   "countylat": 35.807,
   "countylng": -80.8734,
   "name": "Wild Wok",
   "lat": 35.810407,
   "lng": -80.873422,
   "vmaintype": "Asian Restaurant",
   "maintype": "Food"
 },
 {
   "idx": 1502,
   "county": "IREDELL County, North Carolina",
   "countylat": 35.807,
   "countylng": -80.8734,
   "name": "Bj Chinese Buffet",
   "lat": 35.803881,
   "lng": -80.877315,
   "vmaintype": "Asian Restaurant",
   "maintype": "Food"
 },
 {
   "idx": 1717,
   "county": "ALAMANCE County, North Carolina",
   "countylat": 36.0437,
   "countylng": -79.3994,
   "name": "Asian Grill & Sushi",
   "lat": 36.05007909,
   "lng": -79.39895258,
   "vmaintype": "Asian Restaurant",
   "maintype": "Food"
 },
 {
   "idx": 3766,
   "county": "CHATHAM County, North Carolina",
   "countylat": 35.7026,
   "countylng": -79.2553,
   "name": "China Inn",
   "lat": 35.70807655,
   "lng": -79.25485912,
   "vmaintype": "Asian Restaurant",
   "maintype": "Food"
 },
 {
   "idx": 4094,
   "county": "RUTHERFORD County, North Carolina",
   "countylat": 35.4026,
   "countylng": -81.9198,
   "name": "GreatWall",
   "lat": 35.36464597,
   "lng": -81.94275927,
   "vmaintype": "Asian Restaurant",
   "maintype": "Food"
 },
 {
   "idx": 4365,
   "county": "SAMPSON County, North Carolina",
   "countylat": 34.9915,
   "countylng": -78.3714,
   "name": "Ichiban",
   "lat": 34.99256095,
   "lng": -78.34184929,
   "vmaintype": "Asian Restaurant",
   "maintype": "Food"
 },
 {
   "idx": 4891,
   "county": "GRANVILLE County, North Carolina",
   "countylat": 36.3041,
   "countylng": -78.6527,
   "name": "Super Asian Buffet",
   "lat": 36.2809,
   "lng": -78.604656,
   "vmaintype": "Asian Restaurant",
   "maintype": "Food"
 },
 {
   "idx": 5037,
   "county": "DUPLIN County, North Carolina",
   "countylat": 34.9365,
   "countylng": -77.933,
   "name": "Tokyo Sunrise",
   "lat": 34.96472285,
   "lng": -77.96192766,
   "vmaintype": "Asian Restaurant",
   "maintype": "Food"
 },
 {
   "idx": 7288,
   "county": "BLADEN County, North Carolina",
   "countylat": 34.6146,
   "countylng": -78.5636,
   "name": "Tokyo Express",
   "lat": 34.628576,
   "lng": -78.606171,
   "vmaintype": "Asian Restaurant",
   "maintype": "Food"
 },
 {
   "idx": 8086,
   "county": "MARTIN County, North Carolina",
   "countylat": 35.8432,
   "countylng": -77.1092,
   "name": "New Chopstick",
   "lat": 35.84212609,
   "lng": -77.07140186,
   "vmaintype": "Asian Restaurant",
   "maintype": "Food"
 },
 {
   "idx": 8122,
   "county": "MARTIN County, North Carolina",
   "countylat": 35.8432,
   "countylng": -77.1092,
   "name": "China kitchen",
   "lat": 35.83309017,
   "lng": -77.07373454,
   "vmaintype": "Asian Restaurant",
   "maintype": "Food"
 },
 {
   "idx": 9003,
   "county": "AVERY County, North Carolina",
   "countylat": 36.0765,
   "countylng": -81.9226,
   "name": "Nguyens Asian Grill",
   "lat": 36.089073,
   "lng": -81.927556,
   "vmaintype": "Asian Restaurant",
   "maintype": "Food"
 },
 {
   "idx": 251,
   "county": "GUILFORD County, North Carolina",
   "countylat": 36.0795,
   "countylng": -79.7889,
   "name": "WhiteStone",
   "lat": 36.062632,
   "lng": -79.848762,
   "vmaintype": "Assisted Living",
   "maintype": "Assisted Living"
 },
 {
   "idx": 656,
   "county": "BUNCOMBE County, North Carolina",
   "countylat": 35.6112,
   "countylng": -82.5301,
   "name": "Chunn's Cove",
   "lat": 35.60255336,
   "lng": -82.52579996,
   "vmaintype": "Assisted Living",
   "maintype": "Assisted Living"
 },
 {
   "idx": 1575,
   "county": "DAVIDSON County, North Carolina",
   "countylat": 35.7934,
   "countylng": -80.2127,
   "name": "Brookdale Lexington",
   "lat": 35.81474703,
   "lng": -80.23910357,
   "vmaintype": "Assisted Living",
   "maintype": "Assisted Living"
 },
 {
   "idx": 2074,
   "county": "RANDOLPH County, North Carolina",
   "countylat": 35.7103,
   "countylng": -79.806,
   "name": "Our Place Adult Daycare",
   "lat": 35.71691693,
   "lng": -79.80913544,
   "vmaintype": "Assisted Living",
   "maintype": "Assisted Living"
 },
 {
   "idx": 2086,
   "county": "ROWAN County, North Carolina",
   "countylat": 35.6395,
   "countylng": -80.5248,
   "name": "Liberty Commons Nursing & Rehabilitation Center of Rowan County",
   "lat": 35.625032,
   "lng": -80.529619,
   "vmaintype": "Assisted Living",
   "maintype": "Assisted Living"
 },
 {
   "idx": 2705,
   "county": "CRAVEN County, North Carolina",
   "countylat": 35.1249,
   "countylng": -77.0939,
   "name": "Brookdale New Bern",
   "lat": 35.1197,
   "lng": -77.0915229,
   "vmaintype": "Assisted Living",
   "maintype": "Assisted Living"
 },
 {
   "idx": 2979,
   "county": "CLEVELAND County, North Carolina",
   "countylat": 35.3341,
   "countylng": -81.5555,
   "name": "Life Enrichment Adult Day Health Care",
   "lat": 35.313929,
   "lng": -81.524382,
   "vmaintype": "Assisted Living",
   "maintype": "Assisted Living"
 },
 {
   "idx": 3462,
   "county": "CALDWELL County, North Carolina",
   "countylat": 35.953,
   "countylng": -81.5464,
   "name": "Brookdale Lenoir",
   "lat": 35.9321708,
   "lng": -81.5244833,
   "vmaintype": "Assisted Living",
   "maintype": "Assisted Living"
 },
 {
   "idx": 3754,
   "county": "SURRY County, North Carolina",
   "countylat": 36.4148,
   "countylng": -80.6881,
   "name": "Dunmore Plantation",
   "lat": 36.396273,
   "lng": -80.729103,
   "vmaintype": "Assisted Living",
   "maintype": "Assisted Living"
 },
 {
   "idx": 3786,
   "county": "CHATHAM County, North Carolina",
   "countylat": 35.7026,
   "countylng": -79.2553,
   "name": "Cambridge Hills Assisted Living",
   "lat": 35.72727404,
   "lng": -79.18546752,
   "vmaintype": "Assisted Living",
   "maintype": "Assisted Living"
 },
 {
   "idx": 3858,
   "county": "CHATHAM County, North Carolina",
   "countylat": 35.7026,
   "countylng": -79.2553,
   "name": "Twin Rivers",
   "lat": 35.720429,
   "lng": -79.180935,
   "vmaintype": "Assisted Living",
   "maintype": "Assisted Living"
 },
 {
   "idx": 4787,
   "county": "PENDER County, North Carolina",
   "countylat": 34.5248,
   "countylng": -77.9051,
   "name": "The Rose Room",
   "lat": 34.549,
   "lng": -77.9209,
   "vmaintype": "Assisted Living",
   "maintype": "Assisted Living"
 },
 {
   "idx": 4818,
   "county": "PENDER County, North Carolina",
   "countylat": 34.5248,
   "countylng": -77.9051,
   "name": "Room 132 @ Huntington Health",
   "lat": 34.549,
   "lng": -77.9211,
   "vmaintype": "Assisted Living",
   "maintype": "Assisted Living"
 },
 {
   "idx": 4819,
   "county": "PENDER County, North Carolina",
   "countylat": 34.5248,
   "countylng": -77.9051,
   "name": "Hunington Health Care",
   "lat": 34.549,
   "lng": -77.921,
   "vmaintype": "Assisted Living",
   "maintype": "Assisted Living"
 },
 {
   "idx": 4914,
   "county": "GRANVILLE County, North Carolina",
   "countylat": 36.3041,
   "countylng": -78.6527,
   "name": "Granville House",
   "lat": 36.296994,
   "lng": -78.596467,
   "vmaintype": "Assisted Living",
   "maintype": "Assisted Living"
 },
 {
   "idx": 4919,
   "county": "GRANVILLE County, North Carolina",
   "countylat": 36.3041,
   "countylng": -78.6527,
   "name": "Coventry House Inn",
   "lat": 36.295729,
   "lng": -78.596999,
   "vmaintype": "Assisted Living",
   "maintype": "Assisted Living"
 },
 {
   "idx": 5658,
   "county": "HALIFAX County, North Carolina",
   "countylat": 36.2575,
   "countylng": -77.6517,
   "name": "Enfield Oaks",
   "lat": 36.181655,
   "lng": -77.660648,
   "vmaintype": "Assisted Living",
   "maintype": "Assisted Living"
 },
 {
   "idx": 6136,
   "county": "RICHMOND County, North Carolina",
   "countylat": 35.0059,
   "countylng": -79.7478,
   "name": "Hospice Haven",
   "lat": 34.960214,
   "lng": -79.693424,
   "vmaintype": "Assisted Living",
   "maintype": "Assisted Living"
 },
 {
   "idx": 6248,
   "county": "VANCE County, North Carolina",
   "countylat": 36.3649,
   "countylng": -78.4079,
   "name": "Guardian Care",
   "lat": 36.336628,
   "lng": -78.4214,
   "vmaintype": "Assisted Living",
   "maintype": "Assisted Living"
 },
 {
   "idx": 6328,
   "county": "JACKSON County, North Carolina",
   "countylat": 35.2875,
   "countylng": -83.1408,
   "name": "The -ton Ã¯Å’â‚¬",
   "lat": 35.298035,
   "lng": -83.178507,
   "vmaintype": "Assisted Living",
   "maintype": "Assisted Living"
 },
 {
   "idx": 6575,
   "county": "PASQUOTANK County, North Carolina",
   "countylat": 36.2955,
   "countylng": -76.284,
   "name": "Winslows Memorial Home",
   "lat": 36.28638341,
   "lng": -76.26574057,
   "vmaintype": "Assisted Living",
   "maintype": "Assisted Living"
 },
 {
   "idx": 6804,
   "county": "YADKIN County, North Carolina",
   "countylat": 36.1605,
   "countylng": -80.6652,
   "name": "Pinebrook Assisted Living Facility",
   "lat": 36.137983,
   "lng": -80.65472,
   "vmaintype": "Assisted Living",
   "maintype": "Assisted Living"
 },
 {
   "idx": 7097,
   "county": "MACON County, North Carolina",
   "countylat": 35.1505,
   "countylng": -83.4221,
   "name": "Sellers'",
   "lat": 35.133027,
   "lng": -83.406146,
   "vmaintype": "Assisted Living",
   "maintype": "Assisted Living"
 },
 {
   "idx": 7231,
   "county": "TRANSYLVANIA County, North Carolina",
   "countylat": 35.2021,
   "countylng": -82.7982,
   "name": "Accordius Brevard",
   "lat": 35.224739,
   "lng": -82.73723,
   "vmaintype": "Assisted Living",
   "maintype": "Assisted Living"
 },
 {
   "idx": 7331,
   "county": "BLADEN County, North Carolina",
   "countylat": 34.6146,
   "countylng": -78.5636,
   "name": "Poplar Heights",
   "lat": 34.63950649,
   "lng": -78.59719083,
   "vmaintype": "Assisted Living",
   "maintype": "Assisted Living"
 },
 {
   "idx": 7332,
   "county": "BLADEN County, North Carolina",
   "countylat": 34.6146,
   "countylng": -78.5636,
   "name": "ENC Elizabethtown Nursing Center",
   "lat": 34.62111734,
   "lng": -78.60577708,
   "vmaintype": "Assisted Living",
   "maintype": "Assisted Living"
 },
 {
   "idx": 7782,
   "county": "CURRITUCK County, North Carolina",
   "countylat": 36.4031,
   "countylng": -76.0059,
   "name": "Sentara Nursing Center - Currituck",
   "lat": 36.389742,
   "lng": -75.977376,
   "vmaintype": "Assisted Living",
   "maintype": "Assisted Living"
 },
 {
   "idx": 8106,
   "county": "MARTIN County, North Carolina",
   "countylat": 35.8432,
   "countylng": -77.1092,
   "name": "Amani",
   "lat": 35.84109664,
   "lng": -77.09159066,
   "vmaintype": "Assisted Living",
   "maintype": "Assisted Living"
 },
 {
   "idx": 8290,
   "county": "MADISON County, North Carolina",
   "countylat": 35.858,
   "countylng": -82.7058,
   "name": "Elderberry Health Care",
   "lat": 35.798329,
   "lng": -82.653594,
   "vmaintype": "Assisted Living",
   "maintype": "Assisted Living"
 },
 {
   "idx": 8602,
   "county": "NORTHAMPTON County, North Carolina",
   "countylat": 36.4178,
   "countylng": -77.3969,
   "name": "Northampton Nursing And Rehabilitation",
   "lat": 36.40989,
   "lng": -77.4323,
   "vmaintype": "Assisted Living",
   "maintype": "Assisted Living"
 },
 {
   "idx": 8680,
   "county": "WARREN County, North Carolina",
   "countylat": 36.3965,
   "countylng": -78.1067,
   "name": "Warren Hills Nursing Facility",
   "lat": 36.41791196,
   "lng": -78.17074678,
   "vmaintype": "Assisted Living",
   "maintype": "Assisted Living"
 },
 {
   "idx": 9905,
   "county": "CAMDEN County, North Carolina",
   "countylat": 36.3877,
   "countylng": -76.2064,
   "name": "Brookdale Elizabeth City",
   "lat": 36.32969306,
   "lng": -76.23090677,
   "vmaintype": "Assisted Living",
   "maintype": "Assisted Living"
 },
 {
   "idx": 268,
   "county": "GUILFORD County, North Carolina",
   "countylat": 36.0795,
   "countylng": -79.7889,
   "name": "Greensboro Downtown Yoga",
   "lat": 36.07654,
   "lng": -79.787197,
   "vmaintype": "Athletics & Sports",
   "maintype": "Sports"
 },
 {
   "idx": 364,
   "county": "FORSYTH County, North Carolina",
   "countylat": 36.1306,
   "countylng": -80.2563,
   "name": "Brenner Fit Challenge",
   "lat": 36.131524,
   "lng": -80.255525,
   "vmaintype": "Athletics & Sports",
   "maintype": "Sports"
 },
 {
   "idx": 761,
   "county": "UNION County, North Carolina",
   "countylat": 34.9884,
   "countylng": -80.5307,
   "name": "Tu Cancha Sport Center",
   "lat": 34.98579876,
   "lng": -80.53099868,
   "vmaintype": "Athletics & Sports",
   "maintype": "Sports"
 },
 {
   "idx": 1255,
   "county": "ONSLOW County, North Carolina",
   "countylat": 34.7321,
   "countylng": -77.4321,
   "name": "North Carolina Civil War Trails",
   "lat": 34.74330591,
   "lng": -77.43198863,
   "vmaintype": "Athletics & Sports",
   "maintype": "Sports"
 },
 {
   "idx": 1437,
   "county": "PITT County, North Carolina",
   "countylat": 35.5933,
   "countylng": -77.3745,
   "name": "Crossfit Greenville",
   "lat": 35.59250637,
   "lng": -77.38114004,
   "vmaintype": "Athletics & Sports",
   "maintype": "Sports"
 },
 {
   "idx": 2123,
   "county": "ROWAN County, North Carolina",
   "countylat": 35.6395,
   "countylng": -80.5248,
   "name": "KRG Derby",
   "lat": 35.64887238,
   "lng": -80.52159119,
   "vmaintype": "Athletics & Sports",
   "maintype": "Sports"
 },
 {
   "idx": 2380,
   "county": "HARNETT County, North Carolina",
   "countylat": 35.3686,
   "countylng": -78.8694,
   "name": "37 PSR Gun Club",
   "lat": 35.339474,
   "lng": -78.868778,
   "vmaintype": "Athletics & Sports",
   "maintype": "Sports"
 },
 {
   "idx": 2621,
   "county": "HENDERSON County, North Carolina",
   "countylat": 35.3363,
   "countylng": -82.48,
   "name": "Totally New You Personal Training Studio & Athletics",
   "lat": 35.33482742,
   "lng": -82.47161102,
   "vmaintype": "Athletics & Sports",
   "maintype": "Sports"
 },
 {
   "idx": 3931,
   "county": "CARTERET County, North Carolina",
   "countylat": 34.8357,
   "countylng": -76.6589,
   "name": "Salters Kiteboarding",
   "lat": 34.818078,
   "lng": -76.705018,
   "vmaintype": "Athletics & Sports",
   "maintype": "Sports"
 },
 {
   "idx": 4593,
   "county": "HAYWOOD County, North Carolina",
   "countylat": 35.556,
   "countylng": -82.9822,
   "name": "Blue Ridge Breakaway",
   "lat": 35.52553659,
   "lng": -82.98291331,
   "vmaintype": "Athletics & Sports",
   "maintype": "Sports"
 },
 {
   "idx": 5136,
   "county": "LENOIR County, North Carolina",
   "countylat": 35.2388,
   "countylng": -77.6412,
   "name": "Raleigh Fuller Football Field",
   "lat": 35.26064301,
   "lng": -77.64981842,
   "vmaintype": "Athletics & Sports",
   "maintype": "Sports"
 },
 {
   "idx": 5668,
   "county": "HALIFAX County, North Carolina",
   "countylat": 36.2575,
   "countylng": -77.6517,
   "name": "Yoga Magnolia",
   "lat": 36.181412,
   "lng": -77.665799,
   "vmaintype": "Athletics & Sports",
   "maintype": "Sports"
 },
 {
   "idx": 6030,
   "county": "MCDOWELL County, North Carolina",
   "countylat": 35.6817,
   "countylng": -82.0493,
   "name": "Nascar Race Day!",
   "lat": 35.68828583,
   "lng": -82.07313538,
   "vmaintype": "Athletics & Sports",
   "maintype": "Sports"
 },
 {
   "idx": 6047,
   "county": "RICHMOND County, North Carolina",
   "countylat": 35.0059,
   "countylng": -79.7478,
   "name": "Hall Family Gun Range",
   "lat": 35.054308,
   "lng": -79.735214,
   "vmaintype": "Athletics & Sports",
   "maintype": "Sports"
 },
 {
   "idx": 6131,
   "county": "RICHMOND County, North Carolina",
   "countylat": 35.0059,
   "countylng": -79.7478,
   "name": "Raider Stadium",
   "lat": 34.95301725,
   "lng": -79.71731887,
   "vmaintype": "Athletics & Sports",
   "maintype": "Sports"
 },
 {
   "idx": 6431,
   "county": "DAVIE County, North Carolina",
   "countylat": 35.9291,
   "countylng": -80.5445,
   "name": "Brock gym",
   "lat": 35.89988732,
   "lng": -80.55538194,
   "vmaintype": "Athletics & Sports",
   "maintype": "Sports"
 },
 {
   "idx": 6868,
   "county": "ALEXANDER County, North Carolina",
   "countylat": 35.921,
   "countylng": -81.177,
   "name": "The Hitting Factory",
   "lat": 35.92248154,
   "lng": -81.18042755,
   "vmaintype": "Athletics & Sports",
   "maintype": "Sports"
 },
 {
   "idx": 7099,
   "county": "MACON County, North Carolina",
   "countylat": 35.1505,
   "countylng": -83.4221,
   "name": "greenwood batting cages",
   "lat": 35.16632744,
   "lng": -83.40862913,
   "vmaintype": "Athletics & Sports",
   "maintype": "Sports"
 },
 {
   "idx": 8108,
   "county": "MARTIN County, North Carolina",
   "countylat": 35.8432,
   "countylng": -77.1092,
   "name": "Fitness Unlimited Williamston",
   "lat": 35.83916092,
   "lng": -77.08643341,
   "vmaintype": "Athletics & Sports",
   "maintype": "Sports"
 },
 {
   "idx": 8550,
   "county": "POLK County, North Carolina",
   "countylat": 35.2793,
   "countylng": -82.1697,
   "name": "Polk County Gun Club",
   "lat": 35.25862582,
   "lng": -82.15405965,
   "vmaintype": "Athletics & Sports",
   "maintype": "Sports"
 },
 {
   "idx": 9143,
   "county": "MITCHELL County, North Carolina",
   "countylat": 36.0133,
   "countylng": -82.1636,
   "name": "Mine Creek Field",
   "lat": 35.99386513,
   "lng": -82.16798784,
   "vmaintype": "Athletics & Sports",
   "maintype": "Sports"
 },
 {
   "idx": 9670,
   "county": "ALLEGHANY County, North Carolina",
   "countylat": 36.4913,
   "countylng": -81.1279,
   "name": "Alleghany Wellness Center",
   "lat": 36.5049,
   "lng": -81.131639,
   "vmaintype": "Athletics & Sports",
   "maintype": "Sports"
 },
 {
   "idx": 9874,
   "county": "CLAY County, North Carolina",
   "countylat": 35.0572,
   "countylng": -83.7502,
   "name": "Alison-Bristol Veteran's Rec Park",
   "lat": 35.044635,
   "lng": -83.815696,
   "vmaintype": "Athletics & Sports",
   "maintype": "Sports"
 },
 {
   "idx": 745,
   "county": "UNION County, North Carolina",
   "countylat": 34.9884,
   "countylng": -80.5307,
   "name": "Wells Fargo ATM",
   "lat": 34.98817302,
   "lng": -80.53204492,
   "vmaintype": "ATM",
   "maintype": "Bank"
 },
 {
   "idx": 880,
   "county": "NEW HANOVER County, North Carolina",
   "countylat": 34.2328,
   "countylng": -77.8847,
   "name": "CashPointsÃ‚Â® ATM",
   "lat": 34.2316971,
   "lng": -77.8784863,
   "vmaintype": "ATM",
   "maintype": "Bank"
 },
 {
   "idx": 961,
   "county": "GASTON County, North Carolina",
   "countylat": 35.2944,
   "countylng": -81.1803,
   "name": "Wells Fargo ATM",
   "lat": 35.290727,
   "lng": -81.188936,
   "vmaintype": "ATM",
   "maintype": "Bank"
 },
 {
   "idx": 1067,
   "county": "CABARRUS County, North Carolina",
   "countylat": 35.3868,
   "countylng": -80.5519,
   "name": "CashPointsÃ‚Â® ATM",
   "lat": 35.3714879,
   "lng": -80.5511101,
   "vmaintype": "ATM",
   "maintype": "Bank"
 },
 {
   "idx": 1069,
   "county": "CABARRUS County, North Carolina",
   "countylat": 35.3868,
   "countylng": -80.5519,
   "name": "Wells Fargo ATM",
   "lat": 35.37532107,
   "lng": -80.55238545,
   "vmaintype": "ATM",
   "maintype": "Bank"
 },
 {
   "idx": 1153,
   "county": "JOHNSTON County, North Carolina",
   "countylat": 35.5178,
   "countylng": -78.3657,
   "name": "United Community Bank",
   "lat": 35.5125017,
   "lng": -78.3467756,
   "vmaintype": "ATM",
   "maintype": "Bank"
 },
 {
   "idx": 1455,
   "county": "IREDELL County, North Carolina",
   "countylat": 35.807,
   "countylng": -80.8734,
   "name": "Wells Fargo ATM",
   "lat": 35.8097126,
   "lng": -80.8748891,
   "vmaintype": "ATM",
   "maintype": "Bank"
 },
 {
   "idx": 1799,
   "county": "CATAWBA County, North Carolina",
   "countylat": 35.662,
   "countylng": -81.2151,
   "name": "CashPointsÃ‚Â® ATM",
   "lat": 35.66665649,
   "lng": -81.22080231,
   "vmaintype": "ATM",
   "maintype": "Bank"
 },
 {
   "idx": 2097,
   "county": "ROWAN County, North Carolina",
   "countylat": 35.6395,
   "countylng": -80.5248,
   "name": "CashPointsÃ‚Â® ATM",
   "lat": 35.66346137,
   "lng": -80.50334126,
   "vmaintype": "ATM",
   "maintype": "Bank"
 },
 {
   "idx": 2256,
   "county": "ROBESON County, North Carolina",
   "countylat": 34.6402,
   "countylng": -79.1039,
   "name": "State Employee Credit Union ATM",
   "lat": 34.622574,
   "lng": -79.05392,
   "vmaintype": "ATM",
   "maintype": "Bank"
 },